{
"type": "FeatureCollection",
"name": "stations",
"crs": { "type": "name", "properties": { "name": "urn:ogc:def:crs:OGC:1.3:CRS84" } },
"features": [
{ "type": "Feature", "properties": { "Station": "D07A059", "Name": "ÇÜRÜKSUYUKARIŞAMLI", "lat": 37.9167, "lon": 29.0667, "Elevation": 160.0, "Basin_Area": 1726.0 }, "geometry": { "type": "Point", "coordinates": [ 29.0667, 37.9167 ] } },
{ "type": "Feature", "properties": { "Station": "D07A061", "Name": "DANDALAS ÇAYI . BEŞDEĞİRMENLER", "lat": 37.805, "lon": 28.58, "Elevation": 199.0, "Basin_Area": 589.0 }, "geometry": { "type": "Point", "coordinates": [ 28.58, 37.805 ] } },
{ "type": "Feature", "properties": { "Station": "D07A052", "Name": "GÖMÜ D. ÇEVREPINAR", "lat": 38.5036, "lon": 29.9886, "Elevation": 980.0, "Basin_Area": 275.0 }, "geometry": { "type": "Point", "coordinates": [ 29.9886, 38.5036 ] } },
{ "type": "Feature", "properties": { "Station": "D07A052", "Name": "GÖMÜ D. ÇEVREPINAR", "lat": 38.505, "lon": 29.9894, "Elevation": 980.0, "Basin_Area": 275.0 }, "geometry": { "type": "Point", "coordinates": [ 29.9894, 38.505 ] } },
{ "type": "Feature", "properties": { "Station": "D07A070", "Name": "AKÇAY REGÜLATÖR ÇIKIŞI", "lat": 37.8128, "lon": 28.3144, "Elevation": 55.0, "Basin_Area": 3810.0 }, "geometry": { "type": "Point", "coordinates": [ 28.3144, 37.8128 ] } },
{ "type": "Feature", "properties": { "Station": "D07A071", "Name": "BÜYÜK MENDERES N. YUKARI SEYİTLER", "lat": 38.05, "lon": 29.4333, "Elevation": 758.0, "Basin_Area": 4203.0 }, "geometry": { "type": "Point", "coordinates": [ 29.4333, 38.05 ] } },
{ "type": "Feature", "properties": { "Station": "D07A062", "Name": "BÜYÜK MENDERES N. KOÇARLI KÖPRÜSÜ", "lat": 37.8167, "lon": 27.7167, "Elevation": 17.0, "Basin_Area": 22653.0 }, "geometry": { "type": "Point", "coordinates": [ 27.7167, 37.8167 ] } },
{ "type": "Feature", "properties": { "Station": "D07A065", "Name": "BÜYÜK MENDERES N. ADIGÜZEL", "lat": 38.15, "lon": 29.2, "Elevation": 307.0, "Basin_Area": 9006.0 }, "geometry": { "type": "Point", "coordinates": [ 29.2, 38.15 ] } },
{ "type": "Feature", "properties": { "Station": "D06A028", "Name": "DERİNCE D. KÜÇÜKBAHÇE", "lat": 38.5717, "lon": 26.3708, "Elevation": 8.0, "Basin_Area": 30.0 }, "geometry": { "type": "Point", "coordinates": [ 26.3708, 38.5717 ] } },
{ "type": "Feature", "properties": { "Station": "D06A028", "Name": "DERİNCE D. KÜÇÜKBAHÇE", "lat": 38.5717, "lon": 26.3747, "Elevation": 8.0, "Basin_Area": 30.0 }, "geometry": { "type": "Point", "coordinates": [ 26.3747, 38.5717 ] } },
{ "type": "Feature", "properties": { "Station": "D06A026", "Name": "PİRINÇCI Ç. BADEMLİ", "lat": 38.0886, "lon": 28.0667, "Elevation": 250.0, "Basin_Area": 38.0 }, "geometry": { "type": "Point", "coordinates": [ 28.0667, 38.0886 ] } },
{ "type": "Feature", "properties": { "Station": "D06A027", "Name": "ILICA D. ERGENLİ", "lat": 38.2511, "lon": 27.6867, "Elevation": 140.0, "Basin_Area": 57.0 }, "geometry": { "type": "Point", "coordinates": [ 27.6867, 38.2511 ] } },
{ "type": "Feature", "properties": { "Station": "D06A033", "Name": "KİRAZ Ç. KİRAZ", "lat": 38.2303, "lon": 29.1858, "Elevation": 351.0, "Basin_Area": 114.0 }, "geometry": { "type": "Point", "coordinates": [ 29.1858, 38.2303 ] } },
{ "type": "Feature", "properties": { "Station": "D06A033", "Name": "KĠRAZ Ç. KĠRAZ", "lat": 38.2342, "lon": 28.1936, "Elevation": 351.0, "Basin_Area": 114.0 }, "geometry": { "type": "Point", "coordinates": [ 28.1936, 38.2342 ] } },
{ "type": "Feature", "properties": { "Station": "D06A029", "Name": "CAMİBOGAZI D. KARAREİS ÇIFTL.", "lat": 38.4667, "lon": 26.4278, "Elevation": 5.0, "Basin_Area": 59.0 }, "geometry": { "type": "Point", "coordinates": [ 26.4278, 38.4667 ] } },
{ "type": "Feature", "properties": { "Station": "D06A029", "Name": "CAMİBOGAZI D. KARAREİS ÇIFTL.", "lat": 38.4819, "lon": 26.4272, "Elevation": 5.0, "Basin_Area": 59.0 }, "geometry": { "type": "Point", "coordinates": [ 26.4272, 38.4819 ] } },
{ "type": "Feature", "properties": { "Station": "D06A019", "Name": "ELEKÇİ DERESİ DAVUTLAR", "lat": 37.75, "lon": 27.3008, "Elevation": 37.0, "Basin_Area": 9.0 }, "geometry": { "type": "Point", "coordinates": [ 27.3008, 37.75 ] } },
{ "type": "Feature", "properties": { "Station": "D06A024", "Name": "GELİNALAN D. SEFERHİSAR", "lat": 38.1875, "lon": 26.8667, "Elevation": 60.0, "Basin_Area": 14.0 }, "geometry": { "type": "Point", "coordinates": [ 26.8667, 38.1875 ] } },
{ "type": "Feature", "properties": { "Station": "D06A018", "Name": "ARAPASTAN DERESİ DAVUTLAR", "lat": 37.7328, "lon": 27.2989, "Elevation": 63.0, "Basin_Area": 11.0 }, "geometry": { "type": "Point", "coordinates": [ 27.2989, 37.7328 ] } },
{ "type": "Feature", "properties": { "Station": "D06A019", "Name": "ELEKÇİ DERESİ DAVUTLAR", "lat": 37.7497, "lon": 27.3094, "Elevation": 49.0, "Basin_Area": 9.0 }, "geometry": { "type": "Point", "coordinates": [ 27.3094, 37.7497 ] } },
{ "type": "Feature", "properties": { "Station": "D06A025", "Name": "ULADİ Ç. YAKAPINAR", "lat": 38.2414, "lon": 27.5536, "Elevation": 120.0, "Basin_Area": 69.0 }, "geometry": { "type": "Point", "coordinates": [ 27.5536, 38.2414 ] } },
{ "type": "Feature", "properties": { "Station": "D06A026", "Name": "PİRINÇCI Ç. BADEMLİ", "lat": 38.0842, "lon": 28.0661, "Elevation": 250.0, "Basin_Area": 38.0 }, "geometry": { "type": "Point", "coordinates": [ 28.0661, 38.0842 ] } },
{ "type": "Feature", "properties": { "Station": "D06A024", "Name": "GELİNALAN D. SEFERHİSAR", "lat": 38.19, "lon": 26.8608, "Elevation": 60.0, "Basin_Area": 14.0 }, "geometry": { "type": "Point", "coordinates": [ 26.8608, 38.19 ] } },
{ "type": "Feature", "properties": { "Station": "D06A025", "Name": "ULADİ Ç. YAKAPINAR", "lat": 38.2356, "lon": 27.5517, "Elevation": 120.0, "Basin_Area": 69.0 }, "geometry": { "type": "Point", "coordinates": [ 27.5517, 38.2356 ] } },
{ "type": "Feature", "properties": { "Station": "D06A042", "Name": "VAKIFLARDERESİ EĞRİDERE", "lat": 38.0547, "lon": 27.9017, "Elevation": 380.0, "Basin_Area": 21.0 }, "geometry": { "type": "Point", "coordinates": [ 27.9017, 38.0547 ] } },
{ "type": "Feature", "properties": { "Station": "D06A043", "Name": "ALİONBAŞIDERESİ NARLIDERE", "lat": 38.3942, "lon": 27.0078, "Elevation": 40.0, "Basin_Area": 15.0 }, "geometry": { "type": "Point", "coordinates": [ 27.0078, 38.3942 ] } },
{ "type": "Feature", "properties": { "Station": "D06A040", "Name": "ŞEYTANDERE KOCAKAYA", "lat": 38.0925, "lon": 27.0139, "Elevation": 63.0, "Basin_Area": 16.0 }, "geometry": { "type": "Point", "coordinates": [ 27.0139, 38.0925 ] } },
{ "type": "Feature", "properties": { "Station": "D06A041", "Name": "DEĞİRMENDERE KARAKIZLAR", "lat": 38.2731, "lon": 27.4586, "Elevation": 262.0, "Basin_Area": 16.0 }, "geometry": { "type": "Point", "coordinates": [ 27.4586, 38.2731 ] } },
{ "type": "Feature", "properties": { "Station": "D06A046", "Name": "CEVİZLİDERE CUMALI", "lat": 38.3211, "lon": 27.4753, "Elevation": 326.0, "Basin_Area": 10.4 }, "geometry": { "type": "Point", "coordinates": [ 27.4753, 38.3211 ] } },
{ "type": "Feature", "properties": { "Station": "D06A047", "Name": "SUDEĞİRMENİ DERESI YAYLAKÖY", "lat": 38.5053, "lon": 26.4428, "Elevation": 38.0, "Basin_Area": 42.84 }, "geometry": { "type": "Point", "coordinates": [ 26.4428, 38.5053 ] } },
{ "type": "Feature", "properties": { "Station": "D06A044", "Name": "ILICADERE BALÇOVA", "lat": 38.3839, "lon": 27.0347, "Elevation": 185.0, "Basin_Area": 35.0 }, "geometry": { "type": "Point", "coordinates": [ 27.0347, 38.3839 ] } },
{ "type": "Feature", "properties": { "Station": "D06A045", "Name": "MADEN DERESİ BAHÇELER", "lat": 37.9597, "lon": 27.4164, "Elevation": 90.0, "Basin_Area": 12.15 }, "geometry": { "type": "Point", "coordinates": [ 27.4164, 37.9597 ] } },
{ "type": "Feature", "properties": { "Station": "D06A034", "Name": "KIZILKAYA D. YENİSEHİR", "lat": 38.0658, "lon": 27.8942, "Elevation": 312.0, "Basin_Area": 15.0 }, "geometry": { "type": "Point", "coordinates": [ 27.8942, 38.0658 ] } },
{ "type": "Feature", "properties": { "Station": "D06A035", "Name": "AĞLIKDERE VİŞNELİ", "lat": 38.3475, "lon": 27.4197, "Elevation": 40.0, "Basin_Area": 3.0 }, "geometry": { "type": "Point", "coordinates": [ 27.4197, 38.3475 ] } },
{ "type": "Feature", "properties": { "Station": "D06A033", "Name": "KİRAZ Ç. KİRAZ", "lat": 38.2356, "lon": 28.1864, "Elevation": 351.0, "Basin_Area": 114.0 }, "geometry": { "type": "Point", "coordinates": [ 28.1864, 38.2356 ] } },
{ "type": "Feature", "properties": { "Station": "D06A034", "Name": "KIZILKAYA D. YENİSEHİR", "lat": 38.0575, "lon": 27.9092, "Elevation": 312.0, "Basin_Area": 15.0 }, "geometry": { "type": "Point", "coordinates": [ 27.9092, 38.0575 ] } },
{ "type": "Feature", "properties": { "Station": "D06A038", "Name": "ÇAMLI DERE ÇAMLI", "lat": 38.3186, "lon": 26.8664, "Elevation": 80.0, "Basin_Area": 62.0 }, "geometry": { "type": "Point", "coordinates": [ 26.8664, 38.3186 ] } },
{ "type": "Feature", "properties": { "Station": "D06A039", "Name": "DEĞİRMENDERE ÖZDERE", "lat": 38.0136, "lon": 27.1331, "Elevation": 46.0, "Basin_Area": 7.0 }, "geometry": { "type": "Point", "coordinates": [ 27.1331, 38.0136 ] } },
{ "type": "Feature", "properties": { "Station": "D06A036", "Name": "KÜNK DERESİ ARIKBAŞI", "lat": 38.2014, "lon": 27.4808, "Elevation": 93.0, "Basin_Area": 16.0 }, "geometry": { "type": "Point", "coordinates": [ 27.4808, 38.2014 ] } },
{ "type": "Feature", "properties": { "Station": "D06A038", "Name": "ÇAMLI D. ÇAMLI", "lat": 38.3142, "lon": 26.8792, "Elevation": 80.0, "Basin_Area": 62.0 }, "geometry": { "type": "Point", "coordinates": [ 26.8792, 38.3142 ] } },
{ "type": "Feature", "properties": { "Station": "D05A067", "Name": "İMREN D. ULUCAK", "lat": 38.6119, "lon": 36.9492, "Elevation": 463.0, "Basin_Area": 371.0 }, "geometry": { "type": "Point", "coordinates": [ 36.9492, 38.6119 ] } },
{ "type": "Feature", "properties": { "Station": "D05A067", "Name": "ĠMREN D. ULUCAK", "lat": 38.6281, "lon": 28.9506, "Elevation": 463.0, "Basin_Area": 371.0 }, "geometry": { "type": "Point", "coordinates": [ 28.9506, 38.6281 ] } },
{ "type": "Feature", "properties": { "Station": "D05A066", "Name": "SELENDİ Ç. SELENDİ", "lat": 38.7286, "lon": 29.87, "Elevation": 430.0, "Basin_Area": 519.0 }, "geometry": { "type": "Point", "coordinates": [ 29.87, 38.7286 ] } },
{ "type": "Feature", "properties": { "Station": "D05A066", "Name": "SELENDİ Ç. SELENDİ", "lat": 38.7389, "lon": 28.8619, "Elevation": 430.0, "Basin_Area": 519.0 }, "geometry": { "type": "Point", "coordinates": [ 28.8619, 38.7389 ] } },
{ "type": "Feature", "properties": { "Station": "D05A070", "Name": "KARACAALĠDERE ÇIKRIKÇI", "lat": 38.4656, "lon": 27.8192, "Elevation": 140.0, "Basin_Area": 75.0 }, "geometry": { "type": "Point", "coordinates": [ 27.8192, 38.4656 ] } },
{ "type": "Feature", "properties": { "Station": "D05A072", "Name": "KURBAĞALIDERE KOCABEY", "lat": 38.5806, "lon": 29.0267, "Elevation": 575.0, "Basin_Area": 200.0 }, "geometry": { "type": "Point", "coordinates": [ 29.0267, 38.5806 ] } },
{ "type": "Feature", "properties": { "Station": "D05A068", "Name": "KOCADERE POYRAZDAMLARI", "lat": 38.6253, "lon": 28.1414, "Elevation": 125.0, "Basin_Area": 24.0 }, "geometry": { "type": "Point", "coordinates": [ 28.1414, 38.6253 ] } },
{ "type": "Feature", "properties": { "Station": "D05A069", "Name": "GÜRDÜKÇAYI GÖKÇEAHMET", "lat": 39.0194, "lon": 27.8736, "Elevation": 138.0, "Basin_Area": 490.0 }, "geometry": { "type": "Point", "coordinates": [ 27.8736, 39.0194 ] } },
{ "type": "Feature", "properties": { "Station": "D05A064", "Name": "DİKENDERE SARIBURUN", "lat": 38.7814, "lon": 29.2956, "Elevation": 635.0, "Basin_Area": 153.0 }, "geometry": { "type": "Point", "coordinates": [ 29.2956, 38.7814 ] } },
{ "type": "Feature", "properties": { "Station": "D05A064", "Name": "DİKEN D. SARIBURUN", "lat": 38.785, "lon": 31.2997, "Elevation": 635.0, "Basin_Area": 153.0 }, "geometry": { "type": "Point", "coordinates": [ 31.2997, 38.785 ] } },
{ "type": "Feature", "properties": { "Station": "D05A063", "Name": "ARMUTLU D. ARMUTLU", "lat": 38.3736, "lon": 27.5347, "Elevation": 198.0, "Basin_Area": 43.0 }, "geometry": { "type": "Point", "coordinates": [ 27.5347, 38.3736 ] } },
{ "type": "Feature", "properties": { "Station": "D05A063", "Name": "ARMUTLU D. ARMUTLU", "lat": 38.3903, "lon": 27.5347, "Elevation": 198.0, "Basin_Area": 43.0 }, "geometry": { "type": "Point", "coordinates": [ 27.5347, 38.3903 ] } },
{ "type": "Feature", "properties": { "Station": "D05A065", "Name": "GEÇTİN D. DOGANPINAR", "lat": 39.0567, "lon": 29.45, "Elevation": 787.0, "Basin_Area": 59.0 }, "geometry": { "type": "Point", "coordinates": [ 29.45, 39.0567 ] } },
{ "type": "Feature", "properties": { "Station": "D05A065", "Name": "GEÇTİN D. DOGANPINAR", "lat": 39.0669, "lon": 28.4422, "Elevation": 787.0, "Basin_Area": 59.0 }, "geometry": { "type": "Point", "coordinates": [ 28.4422, 39.0669 ] } },
{ "type": "Feature", "properties": { "Station": "D05A064", "Name": "DİKEN D. SARIBURUN", "lat": 38.8167, "lon": 29.2978, "Elevation": 638.0, "Basin_Area": 153.0 }, "geometry": { "type": "Point", "coordinates": [ 29.2978, 38.8167 ] } },
{ "type": "Feature", "properties": { "Station": "D05A065", "Name": "GEÇTİN D. DOĞANPINAR", "lat": 39.0128, "lon": 28.3797, "Elevation": 787.0, "Basin_Area": 59.0 }, "geometry": { "type": "Point", "coordinates": [ 28.3797, 39.0128 ] } },
{ "type": "Feature", "properties": { "Station": "D05A086", "Name": "KAÇAK SU GÖRDES BARAJI", "lat": 38.78, "lon": 28.0553, "Elevation": 2.0, "Basin_Area": 2.0 }, "geometry": { "type": "Point", "coordinates": [ 28.0553, 38.78 ] } },
{ "type": "Feature", "properties": { "Station": "D06A011", "Name": "RAHMANLAR Ç. BEBEKLER", "lat": 38.2853, "lon": 27.9294, "Elevation": 220.0, "Basin_Area": 37.0 }, "geometry": { "type": "Point", "coordinates": [ 27.9294, 38.2853 ] } },
{ "type": "Feature", "properties": { "Station": "D05A082", "Name": "TEKKEDERE HAMZABABA", "lat": 38.4289, "lon": 27.7092, "Elevation": 259.0, "Basin_Area": 13.04 }, "geometry": { "type": "Point", "coordinates": [ 27.7092, 38.4289 ] } },
{ "type": "Feature", "properties": { "Station": "D05A083", "Name": "ÇATALDERE ÇATALKÖPRÜ", "lat": 38.4178, "lon": 27.7336, "Elevation": 214.0, "Basin_Area": 57.5 }, "geometry": { "type": "Point", "coordinates": [ 27.7336, 38.4178 ] } },
{ "type": "Feature", "properties": { "Station": "D06A017", "Name": "UZUNDERE BOZKÖY", "lat": 38.6567, "lon": 26.4597, "Elevation": 18.0, "Basin_Area": 21.0 }, "geometry": { "type": "Point", "coordinates": [ 26.4597, 38.6567 ] } },
{ "type": "Feature", "properties": { "Station": "D06A018", "Name": "ARAPASTAN DERESİ DAVUTLAR", "lat": 37.7303, "lon": 27.3033, "Elevation": 78.0, "Basin_Area": 11.0 }, "geometry": { "type": "Point", "coordinates": [ 27.3033, 37.7303 ] } },
{ "type": "Feature", "properties": { "Station": "D06A011", "Name": "RAHMANLAR Ç. BEBEKLER", "lat": 38.2883, "lon": 27.9281, "Elevation": 220.0, "Basin_Area": 37.0 }, "geometry": { "type": "Point", "coordinates": [ 27.9281, 38.2883 ] } },
{ "type": "Feature", "properties": { "Station": "D06A013", "Name": "FALAKA Ç. FALAKA", "lat": 38.2297, "lon": 27.7425, "Elevation": 130.0, "Basin_Area": 82.0 }, "geometry": { "type": "Point", "coordinates": [ 27.7425, 38.2297 ] } },
{ "type": "Feature", "properties": { "Station": "D05A076", "Name": "SAVANDA ÇAYI SUPERİSİ", "lat": 38.3947, "lon": 27.4503, "Elevation": 208.0, "Basin_Area": 26.0 }, "geometry": { "type": "Point", "coordinates": [ 27.4503, 38.3947 ] } },
{ "type": "Feature", "properties": { "Station": "D05A078", "Name": "SİNANCILAR DERESİ GÖLCÜK", "lat": 38.4108, "lon": 27.67, "Elevation": 250.0, "Basin_Area": 15.0 }, "geometry": { "type": "Point", "coordinates": [ 27.67, 38.4108 ] } },
{ "type": "Feature", "properties": { "Station": "D05A073", "Name": "BAHADIRÇAYI BAHADIRLI", "lat": 38.7228, "lon": 27.5264, "Elevation": 110.0, "Basin_Area": 58.0 }, "geometry": { "type": "Point", "coordinates": [ 27.5264, 38.7228 ] } },
{ "type": "Feature", "properties": { "Station": "D05A075", "Name": "ÇİNGENE DERESİ ALANYURT", "lat": 38.5917, "lon": 28.8797, "Elevation": 465.0, "Basin_Area": 34.0 }, "geometry": { "type": "Point", "coordinates": [ 28.8797, 38.5917 ] } },
{ "type": "Feature", "properties": { "Station": "D05A081", "Name": "KOVALI DERE SÜLEYMANKÖY", "lat": 38.9472, "lon": 27.6061, "Elevation": 193.0, "Basin_Area": 60.23 }, "geometry": { "type": "Point", "coordinates": [ 27.6061, 38.9472 ] } },
{ "type": "Feature", "properties": { "Station": "D05A082", "Name": "TEKKEDERE HAMZABABA", "lat": 38.4247, "lon": 27.7089, "Elevation": 259.0, "Basin_Area": 13.0 }, "geometry": { "type": "Point", "coordinates": [ 27.7089, 38.4247 ] } },
{ "type": "Feature", "properties": { "Station": "D05A079", "Name": "KUNDUZ D YENİKÖY", "lat": 38.7114, "lon": 29.0147, "Elevation": 675.0, "Basin_Area": 85.81 }, "geometry": { "type": "Point", "coordinates": [ 29.0147, 38.7114 ] } },
{ "type": "Feature", "properties": { "Station": "D05A080", "Name": "GÖRDES ÇAYI TAŞKUYUCAK", "lat": 38.7486, "lon": 28.0492, "Elevation": 186.0, "Basin_Area": 2.0 }, "geometry": { "type": "Point", "coordinates": [ 28.0492, 38.7486 ] } },
{ "type": "Feature", "properties": { "Station": "D05A036", "Name": "DERBENT Ç. ULUDERBENT", "lat": 38.1833, "lon": 28.5333, "Elevation": 420.0, "Basin_Area": 119.0 }, "geometry": { "type": "Point", "coordinates": [ 28.5333, 38.1833 ] } },
{ "type": "Feature", "properties": { "Station": "D05A039", "Name": "AHMETLİ Ç. DEREKÖY", "lat": 38.4933, "lon": 27.9425, "Elevation": 125.0, "Basin_Area": 95.0 }, "geometry": { "type": "Point", "coordinates": [ 27.9425, 38.4933 ] } },
{ "type": "Feature", "properties": { "Station": "D05A035", "Name": "INDERESİ GÜNESLİ", "lat": 39.05, "lon": 28.3667, "Elevation": 598.0, "Basin_Area": 88.0 }, "geometry": { "type": "Point", "coordinates": [ 28.3667, 39.05 ] } },
{ "type": "Feature", "properties": { "Station": "D05A035", "Name": "INDERESİ GÜNESLİ", "lat": 39.0547, "lon": 28.3667, "Elevation": 598.0, "Basin_Area": 88.0 }, "geometry": { "type": "Point", "coordinates": [ 28.3667, 39.0547 ] } },
{ "type": "Feature", "properties": { "Station": "D05A043", "Name": "CEMAL D. KAYGANLI", "lat": 39.1242, "lon": 28.005, "Elevation": 290.0, "Basin_Area": 64.0 }, "geometry": { "type": "Point", "coordinates": [ 28.005, 39.1242 ] } },
{ "type": "Feature", "properties": { "Station": "D05A043", "Name": "CEMAL D. KAYGANLI", "lat": 39.125, "lon": 28.0053, "Elevation": 290.0, "Basin_Area": 64.0 }, "geometry": { "type": "Point", "coordinates": [ 28.0053, 39.125 ] } },
{ "type": "Feature", "properties": { "Station": "D05A039", "Name": "AHMETLİ Ç. DEREKÖY", "lat": 38.4947, "lon": 27.9425, "Elevation": 125.0, "Basin_Area": 95.0 }, "geometry": { "type": "Point", "coordinates": [ 27.9425, 38.4947 ] } },
{ "type": "Feature", "properties": { "Station": "D05A042", "Name": "MURAT Ç. GÜMELE", "lat": 38.9667, "lon": 29.45, "Elevation": 740.0, "Basin_Area": 241.0 }, "geometry": { "type": "Point", "coordinates": [ 29.45, 38.9667 ] } },
{ "type": "Feature", "properties": { "Station": "D05A021", "Name": "TABAK D. ÇALTILI", "lat": 38.4642, "lon": 28.0503, "Elevation": 137.0, "Basin_Area": 81.1 }, "geometry": { "type": "Point", "coordinates": [ 28.0503, 38.4642 ] } },
{ "type": "Feature", "properties": { "Station": "D05A021", "Name": "TABAK D. ÇALTILI", "lat": 38.4653, "lon": 28.0539, "Elevation": 137.0, "Basin_Area": 81.0 }, "geometry": { "type": "Point", "coordinates": [ 28.0539, 38.4653 ] } },
{ "type": "Feature", "properties": { "Station": "D05A015", "Name": "MEDAR Ç. MEDAR KÖPRÜSÜ", "lat": 38.9528, "lon": 27.8278, "Elevation": 106.0, "Basin_Area": 512.3 }, "geometry": { "type": "Point", "coordinates": [ 27.8278, 38.9528 ] } },
{ "type": "Feature", "properties": { "Station": "D05A018", "Name": "NİF Ç. ÇİCEKLİ", "lat": 38.4947, "lon": 27.2983, "Elevation": 276.0, "Basin_Area": 40.0 }, "geometry": { "type": "Point", "coordinates": [ 27.2983, 38.4947 ] } },
{ "type": "Feature", "properties": { "Station": "D05A028", "Name": "GÖRDES Ç. HACIHIDIR", "lat": 38.7714, "lon": 28.1967, "Elevation": 305.0, "Basin_Area": 808.0 }, "geometry": { "type": "Point", "coordinates": [ 28.1967, 38.7714 ] } },
{ "type": "Feature", "properties": { "Station": "D05A031", "Name": "ALAŞEHİR Ç. TAYTAN KÖPRÜSÜ", "lat": 38.5103, "lon": 28.1892, "Elevation": 91.0, "Basin_Area": 2513.0 }, "geometry": { "type": "Point", "coordinates": [ 28.1892, 38.5103 ] } },
{ "type": "Feature", "properties": { "Station": "D05A026", "Name": "SARMA Ç. SARMA", "lat": 38.7653, "lon": 27.3986, "Elevation": 117.0, "Basin_Area": 52.0 }, "geometry": { "type": "Point", "coordinates": [ 27.3986, 38.7653 ] } },
{ "type": "Feature", "properties": { "Station": "D05A026", "Name": "SARMA Ç. SARMA", "lat": 38.7694, "lon": 27.3994, "Elevation": 117.0, "Basin_Area": 52.0 }, "geometry": { "type": "Point", "coordinates": [ 27.3994, 38.7694 ] } },
{ "type": "Feature", "properties": { "Station": "D05A052", "Name": "KARANOHUT D. KARANOHUT.", "lat": 38.4219, "lon": 28.2075, "Elevation": 587.0, "Basin_Area": 15.0 }, "geometry": { "type": "Point", "coordinates": [ 28.2075, 38.4219 ] } },
{ "type": "Feature", "properties": { "Station": "D05A053", "Name": "ZEYTİNÇAY OSMANİYE", "lat": 38.3506, "lon": 28.4781, "Elevation": 273.0, "Basin_Area": 31.0 }, "geometry": { "type": "Point", "coordinates": [ 28.4781, 38.3506 ] } },
{ "type": "Feature", "properties": { "Station": "D05A050", "Name": "AYAN D. ÇAMURKÖY", "lat": 38.7583, "lon": 29.0236, "Elevation": 740.0, "Basin_Area": 59.0 }, "geometry": { "type": "Point", "coordinates": [ 29.0236, 38.7583 ] } },
{ "type": "Feature", "properties": { "Station": "D05A052", "Name": "KARANOHUT D. KARANOHUT.", "lat": 38.4206, "lon": 28.2036, "Elevation": 587.0, "Basin_Area": 15.0 }, "geometry": { "type": "Point", "coordinates": [ 28.2036, 38.4206 ] } },
{ "type": "Feature", "properties": { "Station": "D05A056", "Name": "KAVAKLIDERE DEREKÖY", "lat": 38.3789, "lon": 28.3244, "Elevation": 260.0, "Basin_Area": 98.0 }, "geometry": { "type": "Point", "coordinates": [ 28.3244, 38.3789 ] } },
{ "type": "Feature", "properties": { "Station": "D05A060", "Name": "GEDİZ N. HAMİDİYE KÖP.", "lat": 38.6689, "lon": 28.6039, "Elevation": 290.0, "Basin_Area": 4074.7 }, "geometry": { "type": "Point", "coordinates": [ 28.6039, 38.6689 ] } },
{ "type": "Feature", "properties": { "Station": "D05A054", "Name": "DELİCEDERE ÇAMÖNÜ", "lat": 38.9497, "lon": 27.9017, "Elevation": 172.0, "Basin_Area": 38.0 }, "geometry": { "type": "Point", "coordinates": [ 27.9017, 38.9497 ] } },
{ "type": "Feature", "properties": { "Station": "D05A055", "Name": "GÜRLEVİK D. AKÇAPINAR", "lat": 38.4572, "lon": 27.8478, "Elevation": 155.0, "Basin_Area": 43.0 }, "geometry": { "type": "Point", "coordinates": [ 27.8478, 38.4572 ] } },
{ "type": "Feature", "properties": { "Station": "D05A044", "Name": "DEMİRBÜKEN D. BASLAMIS", "lat": 39.0667, "lon": 27.9667, "Elevation": 205.0, "Basin_Area": 148.0 }, "geometry": { "type": "Point", "coordinates": [ 27.9667, 39.0667 ] } },
{ "type": "Feature", "properties": { "Station": "D05A046", "Name": "CONBULAT D. GÜMELE", "lat": 38.9297, "lon": 29.4694, "Elevation": 790.0, "Basin_Area": 74.0 }, "geometry": { "type": "Point", "coordinates": [ 29.4694, 38.9297 ] } },
{ "type": "Feature", "properties": { "Station": "D05A044", "Name": "DEMİRBÜKEN D. BAŞLAMIŞ", "lat": 39.0608, "lon": 27.9642, "Elevation": 205.0, "Basin_Area": 148.0 }, "geometry": { "type": "Point", "coordinates": [ 27.9642, 39.0608 ] } },
{ "type": "Feature", "properties": { "Station": "D05A044", "Name": "DEMİRBÜKEN D. BASLAMIS", "lat": 39.0628, "lon": 27.9661, "Elevation": 205.0, "Basin_Area": 148.0 }, "geometry": { "type": "Point", "coordinates": [ 27.9661, 39.0628 ] } },
{ "type": "Feature", "properties": { "Station": "D05A049", "Name": "KAYACIK D. ÇAGLAYAN", "lat": 38.8069, "lon": 28.0533, "Elevation": 220.0, "Basin_Area": 299.0 }, "geometry": { "type": "Point", "coordinates": [ 28.0533, 38.8069 ] } },
{ "type": "Feature", "properties": { "Station": "D05A050", "Name": "AYAN D. ÇAMURKÖY", "lat": 38.75, "lon": 29.0167, "Elevation": 740.0, "Basin_Area": 59.0 }, "geometry": { "type": "Point", "coordinates": [ 29.0167, 38.75 ] } },
{ "type": "Feature", "properties": { "Station": "D05A048", "Name": "DEGİRMENDERE DOGANLAR", "lat": 38.4289, "lon": 28.2444, "Elevation": 200.0, "Basin_Area": 41.0 }, "geometry": { "type": "Point", "coordinates": [ 28.2444, 38.4289 ] } },
{ "type": "Feature", "properties": { "Station": "D05A049", "Name": "KAYACIK D. ÇAĞLAYAN", "lat": 38.7661, "lon": 27.9875, "Elevation": 172.0, "Basin_Area": 350.0 }, "geometry": { "type": "Point", "coordinates": [ 27.9875, 38.7661 ] } },
{ "type": "Feature", "properties": { "Station": "D04A050", "Name": "HASANDERE ÇAMAVLU", "lat": 39.3125, "lon": 27.1389, "Elevation": 476.0, "Basin_Area": 22.0 }, "geometry": { "type": "Point", "coordinates": [ 27.1389, 39.3125 ] } },
{ "type": "Feature", "properties": { "Station": "D04A051", "Name": "CUMALI D. CUMALI", "lat": 39.1192, "lon": 27.4767, "Elevation": 115.0, "Basin_Area": 84.0 }, "geometry": { "type": "Point", "coordinates": [ 27.4767, 39.1192 ] } },
{ "type": "Feature", "properties": { "Station": "D04A047", "Name": "İNÖNÜ ÇAYI INÖNÜ", "lat": 39.5772, "lon": 27.1522, "Elevation": 65.0, "Basin_Area": 73.0 }, "geometry": { "type": "Point", "coordinates": [ 27.1522, 39.5772 ] } },
{ "type": "Feature", "properties": { "Station": "D04A047", "Name": "İNÖNÜ Ç. İNÖNÜ", "lat": 39.5878, "lon": 27.1575, "Elevation": 78.0, "Basin_Area": 69.56 }, "geometry": { "type": "Point", "coordinates": [ 27.1575, 39.5878 ] } },
{ "type": "Feature", "properties": { "Station": "D04A052", "Name": "KIŞLA DERESİ DEREOBASI", "lat": 39.5178, "lon": 27.1706, "Elevation": 208.0, "Basin_Area": 54.7 }, "geometry": { "type": "Point", "coordinates": [ 27.1706, 39.5178 ] } },
{ "type": "Feature", "properties": { "Station": "D04A053", "Name": "ILICA D. SARICALAR", "lat": 39.2028, "lon": 27.4572, "Elevation": 90.0, "Basin_Area": 150.0 }, "geometry": { "type": "Point", "coordinates": [ 27.4572, 39.2028 ] } },
{ "type": "Feature", "properties": { "Station": "D04A051", "Name": "CUMALI D. CUMALI", "lat": 39.1331, "lon": 27.4753, "Elevation": 115.0, "Basin_Area": 84.0 }, "geometry": { "type": "Point", "coordinates": [ 27.4753, 39.1331 ] } },
{ "type": "Feature", "properties": { "Station": "D04A051", "Name": "CUMALI D. CUMALI", "lat": 39.1361, "lon": 27.4792, "Elevation": 115.0, "Basin_Area": 84.0 }, "geometry": { "type": "Point", "coordinates": [ 27.4792, 39.1361 ] } },
{ "type": "Feature", "properties": { "Station": "D04A039", "Name": "BEZİRGANLAR ÇAYI KAYSER", "lat": 39.9022, "lon": 26.6864, "Elevation": 140.0, "Basin_Area": 85.0 }, "geometry": { "type": "Point", "coordinates": [ 26.6864, 39.9022 ] } },
{ "type": "Feature", "properties": { "Station": "D04A042", "Name": "MANASTIR ÇAYI KAVLAKLAR", "lat": 39.5878, "lon": 26.8303, "Elevation": 55.0, "Basin_Area": 32.0 }, "geometry": { "type": "Point", "coordinates": [ 26.8303, 39.5878 ] } },
{ "type": "Feature", "properties": { "Station": "D04A036", "Name": "ZEYTİNLI ÇAYI ZEYTİNLI", "lat": 39.6169, "lon": 26.9531, "Elevation": 35.0, "Basin_Area": 123.0 }, "geometry": { "type": "Point", "coordinates": [ 26.9531, 39.6169 ] } },
{ "type": "Feature", "properties": { "Station": "D04A038", "Name": "KARAKOÇ D. BOĞAZBAHÇE", "lat": 39.2669, "lon": 26.7933, "Elevation": 27.0, "Basin_Area": 46.21 }, "geometry": { "type": "Point", "coordinates": [ 26.7933, 39.2669 ] } },
{ "type": "Feature", "properties": { "Station": "D04A045", "Name": "HİMMETDERE ÇITAK", "lat": 38.7533, "lon": 27.0694, "Elevation": 170.0, "Basin_Area": 7.0 }, "geometry": { "type": "Point", "coordinates": [ 27.0694, 38.7533 ] } },
{ "type": "Feature", "properties": { "Station": "D04A046", "Name": "AKÇAY AYDINCIK", "lat": 39.1914, "lon": 27.7533, "Elevation": 248.0, "Basin_Area": 48.0 }, "geometry": { "type": "Point", "coordinates": [ 27.7533, 39.1914 ] } },
{ "type": "Feature", "properties": { "Station": "D04A043", "Name": "ÇANDERE KINIK", "lat": 38.4219, "lon": 28.2075, "Elevation": 120.0, "Basin_Area": 69.0 }, "geometry": { "type": "Point", "coordinates": [ 28.2075, 38.4219 ] } },
{ "type": "Feature", "properties": { "Station": "D04A044", "Name": "GEYİKLİDERE MAZILI", "lat": 39.1072, "lon": 26.9639, "Elevation": 59.0, "Basin_Area": 74.0 }, "geometry": { "type": "Point", "coordinates": [ 26.9639, 39.1072 ] } },
{ "type": "Feature", "properties": { "Station": "D04A063", "Name": "KÖMÜRCÜ DERESİ MUSTAFAAĞA KONAĞI", "lat": 39.1636, "lon": 27.1486, "Elevation": 128.0, "Basin_Area": 36.3 }, "geometry": { "type": "Point", "coordinates": [ 27.1486, 39.1636 ] } },
{ "type": "Feature", "properties": { "Station": "D04A064", "Name": "KOCAÇAY SÜNGÜLLÜ", "lat": 38.8556, "lon": 27.3086, "Elevation": 310.0, "Basin_Area": 109.05 }, "geometry": { "type": "Point", "coordinates": [ 27.3086, 38.8556 ] } },
{ "type": "Feature", "properties": { "Station": "D04A059", "Name": "TÜLÜNTÜ D. BAHÇEDERE", "lat": 38.8939, "lon": 27.1158, "Elevation": 92.0, "Basin_Area": 14.0 }, "geometry": { "type": "Point", "coordinates": [ 27.1158, 38.8939 ] } },
{ "type": "Feature", "properties": { "Station": "D04A060", "Name": "YORTANLI ÇAYI PAŞAKÖY", "lat": 39.2111, "lon": 27.3286, "Elevation": 70.0, "Basin_Area": 24.0 }, "geometry": { "type": "Point", "coordinates": [ 27.3286, 39.2111 ] } },
{ "type": "Feature", "properties": { "Station": "D04A068", "Name": "KALABAK Ç. KALABAK", "lat": 39.6114, "lon": 27.1153, "Elevation": 116.0, "Basin_Area": 34.0 }, "geometry": { "type": "Point", "coordinates": [ 27.1153, 39.6114 ] } },
{ "type": "Feature", "properties": { "Station": "D04A069", "Name": "ŞAHİN D. ŞAHİN", "lat": 39.5844, "lon": 26.7578, "Elevation": 35.0, "Basin_Area": 54.0 }, "geometry": { "type": "Point", "coordinates": [ 26.7578, 39.5844 ] } },
{ "type": "Feature", "properties": { "Station": "D04A065", "Name": "MIHLI ÇAYI DARIDERE", "lat": 39.6481, "lon": 26.6942, "Elevation": 595.0, "Basin_Area": 33.33 }, "geometry": { "type": "Point", "coordinates": [ 26.6942, 39.6481 ] } },
{ "type": "Feature", "properties": { "Station": "D04A066", "Name": "TUZLA Ç. AYVACIK BRJ. ÇIKIŞI", "lat": 39.9114, "lon": 26.7233, "Elevation": 176.0, "Basin_Area": 155.0 }, "geometry": { "type": "Point", "coordinates": [ 26.7233, 39.9114 ] } },
{ "type": "Feature", "properties": { "Station": "D04A054", "Name": "KOCADERE MUSACALI", "lat": 39.0567, "lon": 27.2297, "Elevation": 90.0, "Basin_Area": 52.0 }, "geometry": { "type": "Point", "coordinates": [ 27.2297, 39.0567 ] } },
{ "type": "Feature", "properties": { "Station": "D04A055", "Name": "HAVRAN ÇAYI HAVRAN BARAJ ÇIKIŞI", "lat": 39.5714, "lon": 27.1675, "Elevation": 77.0, "Basin_Area": 187.0 }, "geometry": { "type": "Point", "coordinates": [ 27.1675, 39.5714 ] } },
{ "type": "Feature", "properties": { "Station": "D04A053", "Name": "ILICA D. SARICALAR", "lat": 39.2175, "lon": 27.4567, "Elevation": 90.0, "Basin_Area": 150.0 }, "geometry": { "type": "Point", "coordinates": [ 27.4567, 39.2175 ] } },
{ "type": "Feature", "properties": { "Station": "D04A054", "Name": "KOCADERE MUSACALI", "lat": 39.0292, "lon": 27.2294, "Elevation": 90.0, "Basin_Area": 52.0 }, "geometry": { "type": "Point", "coordinates": [ 27.2294, 39.0292 ] } },
{ "type": "Feature", "properties": { "Station": "D04A058", "Name": "KARADERE KOCAÖMERLİ", "lat": 39.0686, "lon": 27.4489, "Elevation": 94.0, "Basin_Area": 182.0 }, "geometry": { "type": "Point", "coordinates": [ 27.4489, 39.0686 ] } },
{ "type": "Feature", "properties": { "Station": "D04A058", "Name": "KARADERE KOCAÖMERLİ", "lat": 39.0694, "lon": 27.4492, "Elevation": 94.0, "Basin_Area": 182.0 }, "geometry": { "type": "Point", "coordinates": [ 27.4492, 39.0694 ] } },
{ "type": "Feature", "properties": { "Station": "D04A056", "Name": "MADRA ÇAYI MADRA BARAJ ÇIKIġI", "lat": 39.2333, "lon": 26.8303, "Elevation": 37.0, "Basin_Area": 420.0 }, "geometry": { "type": "Point", "coordinates": [ 26.8303, 39.2333 ] } },
{ "type": "Feature", "properties": { "Station": "D04A057", "Name": "KEÇĠKAYA D. EVCĠLER", "lat": 39.2606, "lon": 27.6989, "Elevation": 280.0, "Basin_Area": 22.0 }, "geometry": { "type": "Point", "coordinates": [ 27.6989, 39.2606 ] } },
{ "type": "Feature", "properties": { "Station": "D03A140", "Name": "UMURLAR ÇAYI YUSUFÇAMI", "lat": 39.3069, "lon": 28.2467, "Elevation": 38.0, "Basin_Area": 12.0 }, "geometry": { "type": "Point", "coordinates": [ 28.2467, 39.3069 ] } },
{ "type": "Feature", "properties": { "Station": "D03A141", "Name": "EĞRİ DERE GÖLCÜK (SINDIRGI)", "lat": 39.2872, "lon": 28.0022, "Elevation": 275.0, "Basin_Area": 39.92 }, "geometry": { "type": "Point", "coordinates": [ 28.0022, 39.2872 ] } },
{ "type": "Feature", "properties": { "Station": "D03A136", "Name": "KOCAÇAY KAYACA", "lat": 40.0753, "lon": 27.9689, "Elevation": 20.34, "Basin_Area": 2308.8 }, "geometry": { "type": "Point", "coordinates": [ 27.9689, 40.0753 ] } },
{ "type": "Feature", "properties": { "Station": "D03A139", "Name": "Nilüfer Ç. Barakli", "lat": 39.9944, "lon": 29.2019, "Elevation": 54.0, "Basin_Area": 111.0 }, "geometry": { "type": "Point", "coordinates": [ 29.2019, 39.9944 ] } },
{ "type": "Feature", "properties": { "Station": "D03A144", "Name": "SARP DERE AKARCA", "lat": 39.9258, "lon": 28.4397, "Elevation": 165.0, "Basin_Area": 43.24 }, "geometry": { "type": "Point", "coordinates": [ 28.4397, 39.9258 ] } },
{ "type": "Feature", "properties": { "Station": "D03A145", "Name": "DEĞİRMEN KANALI GÜLLER DERESİ", "lat": 40.0175, "lon": 28.5481, "Elevation": 161.0, "Basin_Area": 39.3 }, "geometry": { "type": "Point", "coordinates": [ 28.5481, 40.0175 ] } },
{ "type": "Feature", "properties": { "Station": "D03A142", "Name": "UZUNDERE ARTTIRANLAR", "lat": 39.6528, "lon": 29.2625, "Elevation": 812.0, "Basin_Area": 23.0 }, "geometry": { "type": "Point", "coordinates": [ 29.2625, 39.6528 ] } },
{ "type": "Feature", "properties": { "Station": "D03A143", "Name": "TAġKISLA D. ARTTIRANLAR", "lat": 39.65, "lon": 29.2506, "Elevation": 792.0, "Basin_Area": 15.0 }, "geometry": { "type": "Point", "coordinates": [ 29.2506, 39.65 ] } },
{ "type": "Feature", "properties": { "Station": "D03A128", "Name": "SİMAV ÇAYI KADİKÖY KÖPRÜSÜ", "lat": 39.4581, "lon": 28.12, "Elevation": 13.0, "Basin_Area": 2271.0 }, "geometry": { "type": "Point", "coordinates": [ 28.12, 39.4581 ] } },
{ "type": "Feature", "properties": { "Station": "D03A129", "Name": "DURSUNBEY ÇAYI AŞAĞIYAĞCILAR", "lat": 39.5042, "lon": 28.6372, "Elevation": 425.0, "Basin_Area": 466.0 }, "geometry": { "type": "Point", "coordinates": [ 28.6372, 39.5042 ] } },
{ "type": "Feature", "properties": { "Station": "D03A125", "Name": "EMET Ç. DÜĞÜNCÜLER", "lat": 39.6992, "lon": 28.7314, "Elevation": 261.0, "Basin_Area": 4365.0 }, "geometry": { "type": "Point", "coordinates": [ 28.7314, 39.6992 ] } },
{ "type": "Feature", "properties": { "Station": "D03A126", "Name": "SÖGÜTALAN D. GÜLLER", "lat": 40.0175, "lon": 28.5481, "Elevation": 161.0, "Basin_Area": 39.0 }, "geometry": { "type": "Point", "coordinates": [ 28.5481, 40.0175 ] } },
{ "type": "Feature", "properties": { "Station": "D03A133", "Name": "Narli D. Narlidere Köprü", "lat": 40.2553, "lon": 29.2983, "Elevation": 252.0, "Basin_Area": 43.0 }, "geometry": { "type": "Point", "coordinates": [ 29.2983, 40.2553 ] } },
{ "type": "Feature", "properties": { "Station": "D03A135", "Name": "DOMBAY DERESİ DEDEKAŞI", "lat": 39.5867, "lon": 28.1611, "Elevation": 147.0, "Basin_Area": 238.0 }, "geometry": { "type": "Point", "coordinates": [ 28.1611, 39.5867 ] } },
{ "type": "Feature", "properties": { "Station": "D03A130", "Name": "KİLLİ ÇAYI SARİÇAYIR", "lat": 39.5814, "lon": 28.2014, "Elevation": 139.0, "Basin_Area": 727.0 }, "geometry": { "type": "Point", "coordinates": [ 28.2014, 39.5814 ] } },
{ "type": "Feature", "properties": { "Station": "D03A132", "Name": "ÇAYLAK DERESİ ÇAYLAK", "lat": 39.9019, "lon": 28.1867, "Elevation": 48.0, "Basin_Area": 54.0 }, "geometry": { "type": "Point", "coordinates": [ 28.1867, 39.9019 ] } },
{ "type": "Feature", "properties": { "Station": "D04A021", "Name": "ILYA D. ÇALTIKORU", "lat": 39.2233, "lon": 27.33, "Elevation": 100.0, "Basin_Area": 118.0 }, "geometry": { "type": "Point", "coordinates": [ 27.33, 39.2233 ] } },
{ "type": "Feature", "properties": { "Station": "D04A026", "Name": "YORTANLI D. PAŞAILICASI", "lat": 39.2186, "lon": 27.3306, "Elevation": 85.0, "Basin_Area": 101.0 }, "geometry": { "type": "Point", "coordinates": [ 27.3306, 39.2186 ] } },
{ "type": "Feature", "properties": { "Station": "D04A016", "Name": "KARADERE BAHADINLI", "lat": 39.4458, "lon": 27.0175, "Elevation": 87.0, "Basin_Area": 126.0 }, "geometry": { "type": "Point", "coordinates": [ 27.0175, 39.4458 ] } },
{ "type": "Feature", "properties": { "Station": "D04A017", "Name": "KARINCA DERE REŞİTKÖY", "lat": 39.4397, "lon": 26.9928, "Elevation": 83.0, "Basin_Area": 112.0 }, "geometry": { "type": "Point", "coordinates": [ 26.9928, 39.4397 ] } },
{ "type": "Feature", "properties": { "Station": "D04A032", "Name": "TUZLA ÇAYI KORUBAŞİ", "lat": 39.5253, "lon": 26.2867, "Elevation": 75.0, "Basin_Area": 312.0 }, "geometry": { "type": "Point", "coordinates": [ 26.2867, 39.5253 ] } },
{ "type": "Feature", "properties": { "Station": "D04A035", "Name": "KOCADERE MİSVAK", "lat": 39.6642, "lon": 26.4503, "Elevation": 135.0, "Basin_Area": 43.0 }, "geometry": { "type": "Point", "coordinates": [ 26.4503, 39.6642 ] } },
{ "type": "Feature", "properties": { "Station": "D04A028", "Name": "TUZLA ÇAYI AYVACİK", "lat": 39.5864, "lon": 26.4169, "Elevation": 234.0, "Basin_Area": 173.0 }, "geometry": { "type": "Point", "coordinates": [ 26.4169, 39.5864 ] } },
{ "type": "Feature", "properties": { "Station": "D04A031", "Name": "EYBEK DERESİ ÇAMCI", "lat": 39.6189, "lon": 27.0619, "Elevation": 80.0, "Basin_Area": 25.0 }, "geometry": { "type": "Point", "coordinates": [ 27.0619, 39.6189 ] } },
{ "type": "Feature", "properties": { "Station": "D03G077", "Name": "Doganci Brj. Göl Gözlem", "lat": 40.1167, "lon": 28.9667, "Elevation": 312.0, "Basin_Area": 450.0 }, "geometry": { "type": "Point", "coordinates": [ 28.9667, 40.1167 ] } },
{ "type": "Feature", "properties": { "Station": "D03G080", "Name": "Kayabogazi Brj. Göl Gözlem", "lat": 39.4167, "lon": 29.6167, "Elevation": 2.0, "Basin_Area": 2.0 }, "geometry": { "type": "Point", "coordinates": [ 29.6167, 39.4167 ] } },
{ "type": "Feature", "properties": { "Station": "D03G037", "Name": "Gölbasi G. Göl Gözlem", "lat": 40.2167, "lon": 29.3167, "Elevation": 120.0, "Basin_Area": 64.0 }, "geometry": { "type": "Point", "coordinates": [ 29.3167, 40.2167 ] } },
{ "type": "Feature", "properties": { "Station": "D03G047", "Name": "MANYAS GÖLÜ - ERGİLI REGÜLATÖRÜ", "lat": 40.1311, "lon": 28.0489, "Elevation": 13.55, "Basin_Area": 3049.0 }, "geometry": { "type": "Point", "coordinates": [ 28.0489, 40.1311 ] } },
{ "type": "Feature", "properties": { "Station": "D03G124", "Name": "MANYAS GÖLÜ BEREKETLİ-ESKI BALIKHANE", "lat": 40.2403, "lon": 27.9853, "Elevation": 14.5, "Basin_Area": 3351.8 }, "geometry": { "type": "Point", "coordinates": [ 27.9853, 40.2403 ] } },
{ "type": "Feature", "properties": { "Station": "D04A013", "Name": "MADRA ÇAYI SELİMİYE", "lat": 39.2164, "lon": 26.8164, "Elevation": 24.0, "Basin_Area": 426.0 }, "geometry": { "type": "Point", "coordinates": [ 26.8164, 39.2164 ] } },
{ "type": "Feature", "properties": { "Station": "D03G097", "Name": "Çavdarhisar Brj. Göl Gözlem", "lat": 39.1667, "lon": 29.5833, "Elevation": 1067.0, "Basin_Area": 2.0 }, "geometry": { "type": "Point", "coordinates": [ 29.5833, 39.1667 ] } },
{ "type": "Feature", "properties": { "Station": "D03G114", "Name": "Ulubat G. Göl Göz.(Eskikaraagaç)", "lat": 40.1858, "lon": 28.6125, "Elevation": 2.0, "Basin_Area": 10.0 }, "geometry": { "type": "Point", "coordinates": [ 28.6125, 40.1858 ] } },
{ "type": "Feature", "properties": { "Station": "D12A218", "Name": "KOCA D. DOKUZOLUK", "lat": 41.0508, "lon": 30.4414, "Elevation": 10.0, "Basin_Area": 72.0 }, "geometry": { "type": "Point", "coordinates": [ 30.4414, 41.0508 ] } },
{ "type": "Feature", "properties": { "Station": "D12A218", "Name": "KOCADERE DOKUZOLUK", "lat": 41.0519, "lon": 30.4417, "Elevation": 10.0, "Basin_Area": 72.0 }, "geometry": { "type": "Point", "coordinates": [ 30.4417, 41.0519 ] } },
{ "type": "Feature", "properties": { "Station": "D12A215", "Name": "PORSUK Ç. PARSİBEY", "lat": 39.6886, "lon": 31.1608, "Elevation": 750.0, "Basin_Area": 867.1 }, "geometry": { "type": "Point", "coordinates": [ 31.1608, 39.6886 ] } },
{ "type": "Feature", "properties": { "Station": "D12A218", "Name": "KOCA D. DOKUZOLUK", "lat": 41.0508, "lon": 30.4411, "Elevation": 10.0, "Basin_Area": 72.0 }, "geometry": { "type": "Point", "coordinates": [ 30.4411, 41.0508 ] } },
{ "type": "Feature", "properties": { "Station": "D12A219", "Name": "ANADERE ŞAHTIMARI", "lat": 41.0058, "lon": 30.2628, "Elevation": 52.0, "Basin_Area": 70.0 }, "geometry": { "type": "Point", "coordinates": [ 30.2628, 41.0058 ] } },
{ "type": "Feature", "properties": { "Station": "D12A223", "Name": "ANKARA Ç. SARIOBA KÖPRÜSÜ", "lat": 39.8639, "lon": 32.0833, "Elevation": 667.0, "Basin_Area": 6890.0 }, "geometry": { "type": "Point", "coordinates": [ 32.0833, 39.8639 ] } },
{ "type": "Feature", "properties": { "Station": "D12A219", "Name": "ANADERE ŞAHTIMARI", "lat": 41.0047, "lon": 30.2625, "Elevation": 52.0, "Basin_Area": 70.0 }, "geometry": { "type": "Point", "coordinates": [ 30.2625, 41.0047 ] } },
{ "type": "Feature", "properties": { "Station": "D12A219", "Name": "ANADERE ŞAHTIMARI", "lat": 41.0047, "lon": 30.2628, "Elevation": 52.0, "Basin_Area": 70.0 }, "geometry": { "type": "Point", "coordinates": [ 30.2628, 41.0047 ] } },
{ "type": "Feature", "properties": { "Station": "D12A197", "Name": "DARİÇAYIR D. KARAPİNAR", "lat": 41.0636, "lon": 30.6428, "Elevation": 780.0, "Basin_Area": 99.0 }, "geometry": { "type": "Point", "coordinates": [ 30.6428, 41.0636 ] } },
{ "type": "Feature", "properties": { "Station": "D12A205", "Name": "KAYI GÖLETİ DOLUSAVAK ÇIKIŞI", "lat": 39.2064, "lon": 30.7944, "Elevation": 1155.0, "Basin_Area": 19.0 }, "geometry": { "type": "Point", "coordinates": [ 30.7944, 39.2064 ] } },
{ "type": "Feature", "properties": { "Station": "D12A194", "Name": "HARAMİ D. KARAÖREN", "lat": 39.25, "lon": 30.5667, "Elevation": 1540.0, "Basin_Area": 712.0 }, "geometry": { "type": "Point", "coordinates": [ 30.5667, 39.25 ] } },
{ "type": "Feature", "properties": { "Station": "D12A197", "Name": "DARIÇAYIR D. KARAPINAR", "lat": 41.0592, "lon": 30.6347, "Elevation": 5.0, "Basin_Area": 100.0 }, "geometry": { "type": "Point", "coordinates": [ 30.6347, 41.0592 ] } },
{ "type": "Feature", "properties": { "Station": "D12A210", "Name": "Akçay D. Dogancilar", "lat": 40.2833, "lon": 30.4, "Elevation": 650.0, "Basin_Area": 35.0 }, "geometry": { "type": "Point", "coordinates": [ 30.4, 40.2833 ] } },
{ "type": "Feature", "properties": { "Station": "D12A211", "Name": "MOGAN MOGAN GÖLÜ ÇIKIŞI", "lat": 39.8, "lon": 32.7972, "Elevation": 557.0, "Basin_Area": 924.0 }, "geometry": { "type": "Point", "coordinates": [ 32.7972, 39.8 ] } },
{ "type": "Feature", "properties": { "Station": "D12A208", "Name": "BUDAKLAR D. AKMEŞE", "lat": 40.8672, "lon": 30.1975, "Elevation": 79.0, "Basin_Area": 40.0 }, "geometry": { "type": "Point", "coordinates": [ 30.1975, 40.8672 ] } },
{ "type": "Feature", "properties": { "Station": "D12A210", "Name": "AKÇAY D. DOĞANCILAR", "lat": 40.2667, "lon": 30.4, "Elevation": 650.0, "Basin_Area": 35.0 }, "geometry": { "type": "Point", "coordinates": [ 30.4, 40.2667 ] } },
{ "type": "Feature", "properties": { "Station": "D12A234", "Name": "MEŞELİ D. BEŞEVLER", "lat": 39.7333, "lon": 31.0167, "Elevation": 54.0, "Basin_Area": 970.0 }, "geometry": { "type": "Point", "coordinates": [ 31.0167, 39.7333 ] } },
{ "type": "Feature", "properties": { "Station": "D12A234", "Name": "MEŞELİ D. BEŞEVLER", "lat": 40.9069, "lon": 30.2439, "Elevation": 54.0, "Basin_Area": 9.0 }, "geometry": { "type": "Point", "coordinates": [ 30.2439, 40.9069 ] } },
{ "type": "Feature", "properties": { "Station": "D12A231", "Name": "KOCADERE FETHİYE", "lat": 40.2972, "lon": 29.4531, "Elevation": 303.0, "Basin_Area": 85.0 }, "geometry": { "type": "Point", "coordinates": [ 29.4531, 40.2972 ] } },
{ "type": "Feature", "properties": { "Station": "D12A232", "Name": "KARLANBOĞAZI D. HACCAĞIZ", "lat": 40.5297, "lon": 31.705, "Elevation": 1439.0, "Basin_Area": 36.0 }, "geometry": { "type": "Point", "coordinates": [ 31.705, 40.5297 ] } },
{ "type": "Feature", "properties": { "Station": "D12A238", "Name": "ANKARA Ç. ESENKENT", "lat": 39.8894, "lon": 32.4644, "Elevation": 755.0, "Basin_Area": 4990.0 }, "geometry": { "type": "Point", "coordinates": [ 32.4644, 39.8894 ] } },
{ "type": "Feature", "properties": { "Station": "D12A240", "Name": "İLHAN Ç. BAYAT", "lat": 40.1828, "lon": 32.4414, "Elevation": 1020.0, "Basin_Area": 108.0 }, "geometry": { "type": "Point", "coordinates": [ 32.4414, 40.1828 ] } },
{ "type": "Feature", "properties": { "Station": "D12A235", "Name": "DEĞİRMENDERE DUDAŞ", "lat": 39.9333, "lon": 30.2167, "Elevation": 940.0, "Basin_Area": 39.0 }, "geometry": { "type": "Point", "coordinates": [ 30.2167, 39.9333 ] } },
{ "type": "Feature", "properties": { "Station": "D12A235", "Name": "DEĞİRMENDERE DUDAŞ", "lat": 39.95, "lon": 30.2333, "Elevation": 940.0, "Basin_Area": 39.0 }, "geometry": { "type": "Point", "coordinates": [ 30.2333, 39.95 ] } },
{ "type": "Feature", "properties": { "Station": "D12A224", "Name": "AKMEŞE DERESİ DEREKÖY", "lat": 40.8947, "lon": 30.3139, "Elevation": 30.0, "Basin_Area": 122.0 }, "geometry": { "type": "Point", "coordinates": [ 30.3139, 40.8947 ] } },
{ "type": "Feature", "properties": { "Station": "D12A225", "Name": "DEĞİRMENDERE GÜNDÜZLER", "lat": 39.8833, "lon": 30.7833, "Elevation": 860.0, "Basin_Area": 21.0 }, "geometry": { "type": "Point", "coordinates": [ 30.7833, 39.8833 ] } },
{ "type": "Feature", "properties": { "Station": "D12A224", "Name": "AKMEŞE D. DEREKÖY", "lat": 40.8936, "lon": 30.3133, "Elevation": 30.0, "Basin_Area": 111.0 }, "geometry": { "type": "Point", "coordinates": [ 30.3133, 40.8936 ] } },
{ "type": "Feature", "properties": { "Station": "D12A224", "Name": "AKMEŞE D. DEREKÖY", "lat": 40.8939, "lon": 30.3131, "Elevation": 30.0, "Basin_Area": 111.1 }, "geometry": { "type": "Point", "coordinates": [ 30.3131, 40.8939 ] } },
{ "type": "Feature", "properties": { "Station": "D12A228", "Name": "GÜRLEYK D. DEREKÖY", "lat": 39.9778, "lon": 29.8492, "Elevation": 819.0, "Basin_Area": 15.0 }, "geometry": { "type": "Point", "coordinates": [ 29.8492, 39.9778 ] } },
{ "type": "Feature", "properties": { "Station": "D12A230", "Name": "KARAKAYA D. DOĞANTEPE", "lat": 40.4917, "lon": 30.3694, "Elevation": 192.0, "Basin_Area": 56.0 }, "geometry": { "type": "Point", "coordinates": [ 30.3694, 40.4917 ] } },
{ "type": "Feature", "properties": { "Station": "D12A227", "Name": "ÇARSAMBA D. HİSARCIK", "lat": 39.9667, "lon": 30.3, "Elevation": 900.0, "Basin_Area": 23.0 }, "geometry": { "type": "Point", "coordinates": [ 30.3, 39.9667 ] } },
{ "type": "Feature", "properties": { "Station": "D12A228", "Name": "Gürleyk D. Dereköy", "lat": 39.9667, "lon": 29.8667, "Elevation": 819.0, "Basin_Area": 15.0 }, "geometry": { "type": "Point", "coordinates": [ 29.8667, 39.9667 ] } },
{ "type": "Feature", "properties": { "Station": "D12A175", "Name": "KOCADERE AKİNCILAR", "lat": 40.1181, "lon": 29.4086, "Elevation": 328.0, "Basin_Area": 63.0 }, "geometry": { "type": "Point", "coordinates": [ 29.4086, 40.1181 ] } },
{ "type": "Feature", "properties": { "Station": "D12A175", "Name": "KOCADERE AKİNCILAR", "lat": 40.1189, "lon": 29.4175, "Elevation": 328.0, "Basin_Area": 59.0 }, "geometry": { "type": "Point", "coordinates": [ 29.4175, 40.1189 ] } },
{ "type": "Feature", "properties": { "Station": "D12A172", "Name": "SARISU INONÜ", "lat": 39.8167, "lon": 30.1333, "Elevation": 835.0, "Basin_Area": 298.0 }, "geometry": { "type": "Point", "coordinates": [ 30.1333, 39.8167 ] } },
{ "type": "Feature", "properties": { "Station": "D12A172", "Name": "SARISU İNONÜ", "lat": 39.8167, "lon": 30.15, "Elevation": 835.0, "Basin_Area": 298.0 }, "geometry": { "type": "Point", "coordinates": [ 30.15, 39.8167 ] } },
{ "type": "Feature", "properties": { "Station": "D12A177", "Name": "HOCAKÖY DERE HOCAKÖY", "lat": 40.0492, "lon": 29.4692, "Elevation": 360.0, "Basin_Area": 35.0 }, "geometry": { "type": "Point", "coordinates": [ 29.4692, 40.0492 ] } },
{ "type": "Feature", "properties": { "Station": "D12A177", "Name": "HOCAKÖY DERE HOCAKÖY", "lat": 40.0558, "lon": 29.4719, "Elevation": 363.0, "Basin_Area": 31.0 }, "geometry": { "type": "Point", "coordinates": [ 29.4719, 40.0558 ] } },
{ "type": "Feature", "properties": { "Station": "D12A176", "Name": "AKGÖL ÇIKIġI K.HASAN KÖP.", "lat": 38.9589, "lon": 31.8317, "Elevation": 890.0, "Basin_Area": 1000.0 }, "geometry": { "type": "Point", "coordinates": [ 31.8317, 38.9589 ] } },
{ "type": "Feature", "properties": { "Station": "D12A160", "Name": "SÖGÜT D. KÜRE", "lat": 40.0333, "lon": 30.1, "Elevation": 510.0, "Basin_Area": 94.0 }, "geometry": { "type": "Point", "coordinates": [ 30.1, 40.0333 ] } },
{ "type": "Feature", "properties": { "Station": "D12A164", "Name": "BOĞAZDERE MAHMUDİYE", "lat": 40.2292, "lon": 29.6875, "Elevation": 256.0, "Basin_Area": 62.0 }, "geometry": { "type": "Point", "coordinates": [ 29.6875, 40.2292 ] } },
{ "type": "Feature", "properties": { "Station": "D12A156", "Name": "BEDRESU ISAÖREN", "lat": 40.0386, "lon": 29.5056, "Elevation": 326.0, "Basin_Area": 63.0 }, "geometry": { "type": "Point", "coordinates": [ 29.5056, 40.0386 ] } },
{ "type": "Feature", "properties": { "Station": "D12A159", "Name": "GÖKPİNAR D. AYDİNLI", "lat": 39.1, "lon": 31.75, "Elevation": 790.0, "Basin_Area": 2117.0 }, "geometry": { "type": "Point", "coordinates": [ 31.75, 39.1 ] } },
{ "type": "Feature", "properties": { "Station": "D12A170", "Name": "SARISU KANDİLLİ", "lat": 39.8167, "lon": 30.0333, "Elevation": 870.0, "Basin_Area": 215.0 }, "geometry": { "type": "Point", "coordinates": [ 30.0333, 39.8167 ] } },
{ "type": "Feature", "properties": { "Station": "D12A171", "Name": "Sarisu Yenidodurga", "lat": 39.7667, "lon": 29.9167, "Elevation": 1070.0, "Basin_Area": 121.0 }, "geometry": { "type": "Point", "coordinates": [ 29.9167, 39.7667 ] } },
{ "type": "Feature", "properties": { "Station": "D12A167", "Name": "PAPAZ D. AHİLER", "lat": 40.45, "lon": 29.9833, "Elevation": 163.0, "Basin_Area": 101.0 }, "geometry": { "type": "Point", "coordinates": [ 29.9833, 40.45 ] } },
{ "type": "Feature", "properties": { "Station": "D12A167", "Name": "PAPAZ D. AHİLER", "lat": 40.4667, "lon": 29.9833, "Elevation": 163.0, "Basin_Area": 101.0 }, "geometry": { "type": "Point", "coordinates": [ 29.9833, 40.4667 ] } },
{ "type": "Feature", "properties": { "Station": "D12A186", "Name": "ÇARK S. REG ÇİKIS", "lat": 40.7167, "lon": 30.3333, "Elevation": 132.0, "Basin_Area": 252.0 }, "geometry": { "type": "Point", "coordinates": [ 30.3333, 40.7167 ] } },
{ "type": "Feature", "properties": { "Station": "D12A188", "Name": "NAL D. YAKAPINAR", "lat": 40.2397, "lon": 31.3422, "Elevation": 662.0, "Basin_Area": 618.0 }, "geometry": { "type": "Point", "coordinates": [ 31.3422, 40.2397 ] } },
{ "type": "Feature", "properties": { "Station": "D12A185", "Name": "Akin Deresi Gemis", "lat": 39.3333, "lon": 30.5, "Elevation": 1742.0, "Basin_Area": 218.0 }, "geometry": { "type": "Point", "coordinates": [ 30.5, 39.3333 ] } },
{ "type": "Feature", "properties": { "Station": "D12A186", "Name": "ÇARK S. REG ÇİKIS", "lat": 40.7167, "lon": 30.2, "Elevation": 132.0, "Basin_Area": 252.0 }, "geometry": { "type": "Point", "coordinates": [ 30.2, 40.7167 ] } },
{ "type": "Feature", "properties": { "Station": "D12A193", "Name": "Balik Bogazi D. Kirka", "lat": 39.3167, "lon": 30.5167, "Elevation": 1050.0, "Basin_Area": 685.0 }, "geometry": { "type": "Point", "coordinates": [ 30.5167, 39.3167 ] } },
{ "type": "Feature", "properties": { "Station": "D12A194", "Name": "HARAMİ D. KARAÖREN", "lat": 39.2333, "lon": 30.5667, "Elevation": 1540.0, "Basin_Area": 712.0 }, "geometry": { "type": "Point", "coordinates": [ 30.5667, 39.2333 ] } },
{ "type": "Feature", "properties": { "Station": "D12A189", "Name": "SÜVARİ Ç. ZEYDE", "lat": 40.2944, "lon": 32.0986, "Elevation": 878.0, "Basin_Area": 190.0 }, "geometry": { "type": "Point", "coordinates": [ 32.0986, 40.2944 ] } },
{ "type": "Feature", "properties": { "Station": "D12A192", "Name": "ÇATÖREN BRJ. BRJ. ÇİKISI", "lat": 39.3167, "lon": 30.5667, "Elevation": 2900.0, "Basin_Area": 712.0 }, "geometry": { "type": "Point", "coordinates": [ 30.5667, 39.3167 ] } },
{ "type": "Feature", "properties": { "Station": "D12A181", "Name": "PORSUK Ç. ÇALÇA (Y.BOSNA)", "lat": 39.4667, "lon": 30.1333, "Elevation": 912.0, "Basin_Area": 3810.0 }, "geometry": { "type": "Point", "coordinates": [ 30.1333, 39.4667 ] } },
{ "type": "Feature", "properties": { "Station": "D12A182", "Name": "PÜRTEK D. MEMİK", "lat": 39.5333, "lon": 31.5, "Elevation": 960.0, "Basin_Area": 177.0 }, "geometry": { "type": "Point", "coordinates": [ 31.5, 39.5333 ] } },
{ "type": "Feature", "properties": { "Station": "D12A181", "Name": "PORSUK Ç. ÇALÇA (Y.BOSNA)", "lat": 39.45, "lon": 30.0167, "Elevation": 912.0, "Basin_Area": 3810.0 }, "geometry": { "type": "Point", "coordinates": [ 30.0167, 39.45 ] } },
{ "type": "Feature", "properties": { "Station": "D12A181", "Name": "PORSUK Ç. ÇALÇA (Y.BOSNA)", "lat": 39.4625, "lon": 30.0264, "Elevation": 912.0, "Basin_Area": 3810.0 }, "geometry": { "type": "Point", "coordinates": [ 30.0264, 39.4625 ] } },
{ "type": "Feature", "properties": { "Station": "D12A184", "Name": "Kunduzlar Brj. Baraj Çikis", "lat": 39.35, "lon": 30.5833, "Elevation": 5857.0, "Basin_Area": 406.0 }, "geometry": { "type": "Point", "coordinates": [ 30.5833, 39.35 ] } },
{ "type": "Feature", "properties": { "Station": "D12A185", "Name": "AKİN DERESI GEMİŞ", "lat": 39.3333, "lon": 30.4833, "Elevation": 1742.0, "Basin_Area": 218.0 }, "geometry": { "type": "Point", "coordinates": [ 30.4833, 39.3333 ] } },
{ "type": "Feature", "properties": { "Station": "D12A183", "Name": "Keçeliözü D. Göknebi", "lat": 39.3667, "lon": 30.5167, "Elevation": 2032.0, "Basin_Area": 94.0 }, "geometry": { "type": "Point", "coordinates": [ 30.5167, 39.3667 ] } },
{ "type": "Feature", "properties": { "Station": "D12A184", "Name": "KUNDUZLAR BRJ. BARAJ ÇIKIŞ", "lat": 39.35, "lon": 30.5667, "Elevation": 5857.0, "Basin_Area": 406.0 }, "geometry": { "type": "Point", "coordinates": [ 30.5667, 39.35 ] } },
{ "type": "Feature", "properties": { "Station": "D12A126", "Name": "MERA Ç. PAZAR YOL AYIRIMI", "lat": 40.3339, "lon": 32.7006, "Elevation": 971.0, "Basin_Area": 197.0 }, "geometry": { "type": "Point", "coordinates": [ 32.7006, 40.3339 ] } },
{ "type": "Feature", "properties": { "Station": "D12A128", "Name": "OVA Ç. DERİVASYON KANALI", "lat": 40.2447, "lon": 32.8625, "Elevation": 974.0, "Basin_Area": 1000.0 }, "geometry": { "type": "Point", "coordinates": [ 32.8625, 40.2447 ] } },
{ "type": "Feature", "properties": { "Station": "D12A101", "Name": "KARGIN D. REG.DERĠVASYON KAN.", "lat": 39.5833, "lon": 30.2667, "Elevation": 896.0, "Basin_Area": 317.3 }, "geometry": { "type": "Point", "coordinates": [ 30.2667, 39.5833 ] } },
{ "type": "Feature", "properties": { "Station": "D12A118", "Name": "ÇIKIŞI EYMİR GÖLÜ", "lat": 39.8333, "lon": 32.85, "Elevation": 969.0, "Basin_Area": 1000.0 }, "geometry": { "type": "Point", "coordinates": [ 32.85, 39.8333 ] } },
{ "type": "Feature", "properties": { "Station": "D12A135", "Name": "CERRAH D. CERRAH", "lat": 40.0689, "lon": 29.4464, "Elevation": 325.0, "Basin_Area": 177.0 }, "geometry": { "type": "Point", "coordinates": [ 29.4464, 40.0689 ] } },
{ "type": "Feature", "properties": { "Station": "D12A136", "Name": "MUDURNU Ç. GEBEŞ", "lat": 40.75, "lon": 30.5167, "Elevation": 25.0, "Basin_Area": 1521.0 }, "geometry": { "type": "Point", "coordinates": [ 30.5167, 40.75 ] } },
{ "type": "Feature", "properties": { "Station": "D12A129", "Name": "ÇUBUK Ç. YENİCE", "lat": 40.1269, "lon": 32.9744, "Elevation": 933.0, "Basin_Area": 824.0 }, "geometry": { "type": "Point", "coordinates": [ 32.9744, 40.1269 ] } },
{ "type": "Feature", "properties": { "Station": "D12A135", "Name": "CERRAH D. CERRAH", "lat": 40.0667, "lon": 29.4333, "Elevation": 327.0, "Basin_Area": 116.0 }, "geometry": { "type": "Point", "coordinates": [ 29.4333, 40.0667 ] } },
{ "type": "Feature", "properties": { "Station": "D12A075", "Name": "SİRKELİ Ç. KARŞIYAKA", "lat": 40.1417, "lon": 32.8889, "Elevation": 1018.0, "Basin_Area": 59.0 }, "geometry": { "type": "Point", "coordinates": [ 32.8889, 40.1417 ] } },
{ "type": "Feature", "properties": { "Station": "D12A083", "Name": "RAVLI D. RAVLI", "lat": 40.1344, "lon": 33.1083, "Elevation": 1068.0, "Basin_Area": 65.0 }, "geometry": { "type": "Point", "coordinates": [ 33.1083, 40.1344 ] } },
{ "type": "Feature", "properties": { "Station": "D12A055", "Name": "MURAT Ç. AKÇAKÖY", "lat": 39.0333, "lon": 30.0167, "Elevation": 1062.0, "Basin_Area": 297.0 }, "geometry": { "type": "Point", "coordinates": [ 30.0167, 39.0333 ] } },
{ "type": "Feature", "properties": { "Station": "D12A063", "Name": "ULUDERE ULUÇAYİR", "lat": 39.6333, "lon": 30.4, "Elevation": 826.0, "Basin_Area": 290.0 }, "geometry": { "type": "Point", "coordinates": [ 30.4, 39.6333 ] } },
{ "type": "Feature", "properties": { "Station": "D12A093", "Name": "KOKAR Ç. EYİCE", "lat": 38.8667, "lon": 30.1667, "Elevation": 1130.0, "Basin_Area": 153.0 }, "geometry": { "type": "Point", "coordinates": [ 30.1667, 38.8667 ] } },
{ "type": "Feature", "properties": { "Station": "D12A099", "Name": "SEY DERESİ GÜVEM", "lat": 40.5922, "lon": 32.6586, "Elevation": 1081.0, "Basin_Area": 205.0 }, "geometry": { "type": "Point", "coordinates": [ 32.6586, 40.5922 ] } },
{ "type": "Feature", "properties": { "Station": "D12A091", "Name": "Göynük S. Kasikçi", "lat": 40.3333, "lon": 30.15, "Elevation": 129.0, "Basin_Area": 968.0 }, "geometry": { "type": "Point", "coordinates": [ 30.15, 40.3333 ] } },
{ "type": "Feature", "properties": { "Station": "D12A093", "Name": "Kokar Ç. Eyice", "lat": 36.8833, "lon": 30.1667, "Elevation": 1130.0, "Basin_Area": 153.0 }, "geometry": { "type": "Point", "coordinates": [ 30.1667, 36.8833 ] } },
{ "type": "Feature", "properties": { "Station": "D12A153", "Name": "GÖKSU N. BOĞAZKÖY", "lat": 40.1886, "lon": 29.5431, "Elevation": 245.0, "Basin_Area": 1174.3 }, "geometry": { "type": "Point", "coordinates": [ 29.5431, 40.1886 ] } },
{ "type": "Feature", "properties": { "Station": "D12A153", "Name": "GÖKSU N. BOĞAZKÖY", "lat": 40.1972, "lon": 29.5344, "Elevation": 245.0, "Basin_Area": 1174.0 }, "geometry": { "type": "Point", "coordinates": [ 29.5344, 40.1972 ] } },
{ "type": "Feature", "properties": { "Station": "D12A152", "Name": "KOKAR Ç. BEŞKARİŞ", "lat": 38.9667, "lon": 30.1333, "Elevation": 1075.0, "Basin_Area": 214.0 }, "geometry": { "type": "Point", "coordinates": [ 30.1333, 38.9667 ] } },
{ "type": "Feature", "properties": { "Station": "D12A152", "Name": "KOKAR Ç. BEŞKARİŞ", "lat": 38.9667, "lon": 30.15, "Elevation": 1075.0, "Basin_Area": 214.8 }, "geometry": { "type": "Point", "coordinates": [ 30.15, 38.9667 ] } },
{ "type": "Feature", "properties": { "Station": "D12A155", "Name": "AKÇASU ORTAKÖY", "lat": 40.5361, "lon": 29.5667, "Elevation": 318.0, "Basin_Area": 106.0 }, "geometry": { "type": "Point", "coordinates": [ 29.5667, 40.5361 ] } },
{ "type": "Feature", "properties": { "Station": "D12A156", "Name": "BEDRESU ISAÖREN", "lat": 40.0333, "lon": 29.5, "Elevation": 325.0, "Basin_Area": 59.0 }, "geometry": { "type": "Point", "coordinates": [ 29.5, 40.0333 ] } },
{ "type": "Feature", "properties": { "Station": "D12A153", "Name": "GÖKSU N. BOĞAZKÖY", "lat": 40.3219, "lon": 29.5319, "Elevation": 245.0, "Basin_Area": 1174.3 }, "geometry": { "type": "Point", "coordinates": [ 29.5319, 40.3219 ] } },
{ "type": "Feature", "properties": { "Station": "D12A155", "Name": "AKÇASU ORTAKÖY", "lat": 40.0167, "lon": 29.5667, "Elevation": 318.0, "Basin_Area": 106.0 }, "geometry": { "type": "Point", "coordinates": [ 29.5667, 40.0167 ] } },
{ "type": "Feature", "properties": { "Station": "D12A146", "Name": "GÖYNÜK S. YENİKÖY", "lat": 40.4, "lon": 30.5333, "Elevation": 425.0, "Basin_Area": 363.0 }, "geometry": { "type": "Point", "coordinates": [ 30.5333, 40.4 ] } },
{ "type": "Feature", "properties": { "Station": "D12A147", "Name": "PAZAR Ç. PAZAR", "lat": 40.3286, "lon": 32.7514, "Elevation": 1010.0, "Basin_Area": 56.0 }, "geometry": { "type": "Point", "coordinates": [ 32.7514, 40.3286 ] } },
{ "type": "Feature", "properties": { "Station": "D12A138", "Name": "SIRÇASARAY S. YEŞİLÖZ", "lat": 39.1442, "lon": 32.3369, "Elevation": 856.0, "Basin_Area": 294.0 }, "geometry": { "type": "Point", "coordinates": [ 32.3369, 39.1442 ] } },
{ "type": "Feature", "properties": { "Station": "D12A146", "Name": "GÖYNÜK S. YENİKÖY", "lat": 40.3833, "lon": 30.5333, "Elevation": 425.0, "Basin_Area": 363.0 }, "geometry": { "type": "Point", "coordinates": [ 30.5333, 40.3833 ] } },
{ "type": "Feature", "properties": { "Station": "D12A150", "Name": "Kocadere Ömerköy", "lat": 39.85, "lon": 31.5167, "Elevation": 1207.0, "Basin_Area": 16.0 }, "geometry": { "type": "Point", "coordinates": [ 31.5167, 39.85 ] } },
{ "type": "Feature", "properties": { "Station": "D12A150", "Name": "KOCADERE ÖMERKÖY", "lat": 39.85, "lon": 31.5333, "Elevation": 1207.0, "Basin_Area": 16.0 }, "geometry": { "type": "Point", "coordinates": [ 31.5333, 39.85 ] } },
{ "type": "Feature", "properties": { "Station": "D12A149", "Name": "Dodurga Brj. Çikis", "lat": 39.7833, "lon": 29.95, "Elevation": 1034.0, "Basin_Area": 182.0 }, "geometry": { "type": "Point", "coordinates": [ 29.95, 39.7833 ] } },
{ "type": "Feature", "properties": { "Station": "D12A149", "Name": "DODURGA BRJ. ÇIKIŞ", "lat": 39.7833, "lon": 29.9667, "Elevation": 1034.0, "Basin_Area": 182.0 }, "geometry": { "type": "Point", "coordinates": [ 29.9667, 39.7833 ] } },
{ "type": "Feature", "properties": { "Station": "D11A015", "Name": "ENGİLLİ D. CANKURTARAN", "lat": 38.2744, "lon": 31.42, "Elevation": 1502.0, "Basin_Area": 46.0 }, "geometry": { "type": "Point", "coordinates": [ 31.42, 38.2744 ] } },
{ "type": "Feature", "properties": { "Station": "D11A017", "Name": "ARAPLI D. KÖPRÜLÜ", "lat": 38.8244, "lon": 30.3675, "Elevation": 1045.0, "Basin_Area": 729.0 }, "geometry": { "type": "Point", "coordinates": [ 30.3675, 38.8244 ] } },
{ "type": "Feature", "properties": { "Station": "D11A013", "Name": "KALİ Ç. SELEVİR BRJ. GİRİŞ", "lat": 38.4489, "lon": 30.6464, "Elevation": 1110.0, "Basin_Area": 690.0 }, "geometry": { "type": "Point", "coordinates": [ 30.6464, 38.4489 ] } },
{ "type": "Feature", "properties": { "Station": "D11A015", "Name": "ENGĠLLĠ D. CANKURTARAN", "lat": 38.2742, "lon": 31.4203, "Elevation": 1500.0, "Basin_Area": 46.0 }, "geometry": { "type": "Point", "coordinates": [ 31.4203, 38.2742 ] } },
{ "type": "Feature", "properties": { "Station": "D11A021", "Name": "ÇAY D. ÇAY", "lat": 38.5472, "lon": 31.0231, "Elevation": 1187.0, "Basin_Area": 62.0 }, "geometry": { "type": "Point", "coordinates": [ 31.0231, 38.5472 ] } },
{ "type": "Feature", "properties": { "Station": "D11A022", "Name": "DEGİRMEN D. ÖZBURUN", "lat": 38.8333, "lon": 30.9814, "Elevation": 1160.0, "Basin_Area": 59.0 }, "geometry": { "type": "Point", "coordinates": [ 30.9814, 38.8333 ] } },
{ "type": "Feature", "properties": { "Station": "D11A017", "Name": "ARAPLI D. KÖPRÜLÜ", "lat": 38.8486, "lon": 30.3947, "Elevation": 1045.0, "Basin_Area": 743.0 }, "geometry": { "type": "Point", "coordinates": [ 30.3947, 38.8486 ] } },
{ "type": "Feature", "properties": { "Station": "D11A020", "Name": "AKAR Ç. AKDEĞİRMEN", "lat": 38.8122, "lon": 30.2269, "Elevation": 1089.0, "Basin_Area": 203.0 }, "geometry": { "type": "Point", "coordinates": [ 30.2269, 38.8122 ] } },
{ "type": "Feature", "properties": { "Station": "D10A035", "Name": "DEGĠRMEN D. KARAMANLI BARAJI GĠRĠġ", "lat": 37.4308, "lon": 29.8189, "Elevation": 1191.0, "Basin_Area": 83.0 }, "geometry": { "type": "Point", "coordinates": [ 29.8189, 37.4308 ] } },
{ "type": "Feature", "properties": { "Station": "D10A040", "Name": "DEGİRMEN D. KARAMANLI BARAJI GİRİŞ", "lat": 37.4297, "lon": 29.8203, "Elevation": 1191.0, "Basin_Area": 110.36 }, "geometry": { "type": "Point", "coordinates": [ 29.8203, 37.4297 ] } },
{ "type": "Feature", "properties": { "Station": "D10A033", "Name": "BAYNAZ DERESİ ÇAYLI", "lat": 37.2069, "lon": 29.8103, "Elevation": 1316.0, "Basin_Area": 39.0 }, "geometry": { "type": "Point", "coordinates": [ 29.8103, 37.2069 ] } },
{ "type": "Feature", "properties": { "Station": "D10A034", "Name": "BAYNAZ DERESİ  BAYRAMLAR", "lat": 37.2353, "lon": 29.8261, "Elevation": 1206.0, "Basin_Area": 52.0 }, "geometry": { "type": "Point", "coordinates": [ 29.8261, 37.2353 ] } },
{ "type": "Feature", "properties": { "Station": "D11A002", "Name": "ADIYAN S. ORTAKÖY", "lat": 38.4472, "lon": 31.5158, "Elevation": 965.0, "Basin_Area": 631.0 }, "geometry": { "type": "Point", "coordinates": [ 31.5158, 38.4472 ] } },
{ "type": "Feature", "properties": { "Station": "D11A002", "Name": "ADIYAN S. ORTAKÖY", "lat": 38.4472, "lon": 31.5161, "Elevation": 965.0, "Basin_Area": 631.0 }, "geometry": { "type": "Point", "coordinates": [ 31.5161, 38.4472 ] } },
{ "type": "Feature", "properties": { "Station": "D10G021", "Name": "KARAMANLİ BRJ. GÖL GÖZLEM", "lat": 37.3833, "lon": 29.8333, "Elevation": 1190.0, "Basin_Area": 163.0 }, "geometry": { "type": "Point", "coordinates": [ 29.8333, 37.3833 ] } },
{ "type": "Feature", "properties": { "Station": "D11A002", "Name": "ADIYAN S. ORTAKÖY", "lat": 37.4422, "lon": 31.1769, "Elevation": 965.0, "Basin_Area": 631.0 }, "geometry": { "type": "Point", "coordinates": [ 31.1769, 37.4422 ] } },
{ "type": "Feature", "properties": { "Station": "D12A034", "Name": "PORSUK Ç. PORSUK BARAJİ ÇIKIŞ", "lat": 39.6347, "lon": 30.2833, "Elevation": 842.0, "Basin_Area": 465.0 }, "geometry": { "type": "Point", "coordinates": [ 30.2833, 39.6347 ] } },
{ "type": "Feature", "properties": { "Station": "D12A049", "Name": "KUREYŞLER D. KUREYŞLER", "lat": 39.2833, "lon": 29.8333, "Elevation": 1029.0, "Basin_Area": 112.0 }, "geometry": { "type": "Point", "coordinates": [ 29.8333, 39.2833 ] } },
{ "type": "Feature", "properties": { "Station": "D12A033", "Name": "PORSUK Ç. PORSUK ÇİFTLIGI", "lat": 39.35, "lon": 30.0333, "Elevation": 951.0, "Basin_Area": 2432.0 }, "geometry": { "type": "Point", "coordinates": [ 30.0333, 39.35 ] } },
{ "type": "Feature", "properties": { "Station": "D12A034", "Name": "PORSUK Ç. PORSUK BARAJİ ÇIKIŞ", "lat": 39.6347, "lon": 30.2797, "Elevation": 842.0, "Basin_Area": 465.0 }, "geometry": { "type": "Point", "coordinates": [ 30.2797, 39.6347 ] } },
{ "type": "Feature", "properties": { "Station": "D12A054", "Name": "PORSUK Ç. EŞENKARA", "lat": 39.7317, "lon": 30.4244, "Elevation": 807.0, "Basin_Area": 5169.0 }, "geometry": { "type": "Point", "coordinates": [ 30.4244, 39.7317 ] } },
{ "type": "Feature", "properties": { "Station": "D12A054", "Name": "PORSUK Ç. EŞENKARA", "lat": 39.7319, "lon": 30.4247, "Elevation": 807.0, "Basin_Area": 5169.0 }, "geometry": { "type": "Point", "coordinates": [ 30.4247, 39.7319 ] } },
{ "type": "Feature", "properties": { "Station": "D12A049", "Name": "KUREYSLER D. KUREYSLER", "lat": 39.3, "lon": 29.85, "Elevation": 1029.0, "Basin_Area": 112.0 }, "geometry": { "type": "Point", "coordinates": [ 29.85, 39.3 ] } },
{ "type": "Feature", "properties": { "Station": "D12A054", "Name": "PORSUK Ç. EġENKARA", "lat": 39.7311, "lon": 30.3411, "Elevation": 807.0, "Basin_Area": 5169.0 }, "geometry": { "type": "Point", "coordinates": [ 30.3411, 39.7311 ] } },
{ "type": "Feature", "properties": { "Station": "D11A023", "Name": "EBER G. GİRİŞ", "lat": 38.6647, "lon": 31.0231, "Elevation": 970.0, "Basin_Area": 4160.0 }, "geometry": { "type": "Point", "coordinates": [ 31.0231, 38.6647 ] } },
{ "type": "Feature", "properties": { "Station": "D11G004", "Name": "EBER G. GÖL GÖZLEM", "lat": 38.6167, "lon": 31.0833, "Elevation": 50.0, "Basin_Area": 5005.0 }, "geometry": { "type": "Point", "coordinates": [ 31.0833, 38.6167 ] } },
{ "type": "Feature", "properties": { "Station": "D11A023", "Name": "EBER G. GĠRĠġ", "lat": 38.6636, "lon": 31.0231, "Elevation": 970.0, "Basin_Area": 4160.0 }, "geometry": { "type": "Point", "coordinates": [ 31.0231, 38.6636 ] } },
{ "type": "Feature", "properties": { "Station": "D11A023", "Name": "EBER G. GİRİŞ", "lat": 38.6636, "lon": 31.0233, "Elevation": 970.0, "Basin_Area": 4160.0 }, "geometry": { "type": "Point", "coordinates": [ 31.0233, 38.6636 ] } },
{ "type": "Feature", "properties": { "Station": "D12A033", "Name": "PORSUK Ç. PORSUK ÇİFTLIGI", "lat": 39.3333, "lon": 30.0333, "Elevation": 951.0, "Basin_Area": 2432.0 }, "geometry": { "type": "Point", "coordinates": [ 30.0333, 39.3333 ] } },
{ "type": "Feature", "properties": { "Station": "D12A033", "Name": "PORSUK Ç. PORSUK ÇİFTLİĞİ", "lat": 39.3439, "lon": 30.0333, "Elevation": 951.0, "Basin_Area": 2432.0 }, "geometry": { "type": "Point", "coordinates": [ 30.0333, 39.3439 ] } },
{ "type": "Feature", "properties": { "Station": "D11G011", "Name": "KARAMIK G. GÖL GÖZLEM", "lat": 38.45, "lon": 30.9, "Elevation": 1000.0, "Basin_Area": 342.0 }, "geometry": { "type": "Point", "coordinates": [ 30.9, 38.45 ] } },
{ "type": "Feature", "properties": { "Station": "D12A017", "Name": "KIZILCAHAMAM D. MANDIRA", "lat": 40.4325, "lon": 32.6494, "Elevation": 919.0, "Basin_Area": 907.0 }, "geometry": { "type": "Point", "coordinates": [ 32.6494, 40.4325 ] } },
{ "type": "Feature", "properties": { "Station": "D09A123", "Name": "ÇUKUR Ç. NARLI", "lat": 37.6231, "lon": 30.7514, "Elevation": 404.0, "Basin_Area": 43.0 }, "geometry": { "type": "Point", "coordinates": [ 30.7514, 37.6231 ] } },
{ "type": "Feature", "properties": { "Station": "D09A124", "Name": "Koca D. Akbas", "lat": 37.1, "lon": 30.0842, "Elevation": 147.0, "Basin_Area": 42.0 }, "geometry": { "type": "Point", "coordinates": [ 30.0842, 37.1 ] } },
{ "type": "Feature", "properties": { "Station": "D09A122", "Name": "Sagarin D. Çardak", "lat": 36.9917, "lon": 31.2847, "Elevation": 80.0, "Basin_Area": 144.0 }, "geometry": { "type": "Point", "coordinates": [ 31.2847, 36.9917 ] } },
{ "type": "Feature", "properties": { "Station": "D09A123", "Name": "ÇUKUR Ç. NARLI", "lat": 37.6194, "lon": 30.7247, "Elevation": 410.0, "Basin_Area": 43.0 }, "geometry": { "type": "Point", "coordinates": [ 30.7247, 37.6194 ] } },
{ "type": "Feature", "properties": { "Station": "D09A127", "Name": "DELİCE Ç. YENİKÖY", "lat": 36.6322, "lon": 31.9611, "Elevation": 210.0, "Basin_Area": 45.0 }, "geometry": { "type": "Point", "coordinates": [ 31.9611, 36.6322 ] } },
{ "type": "Feature", "properties": { "Station": "D09A131", "Name": "DEREKÖY ÇAYI DEREKÖY", "lat": 37.0989, "lon": 30.1278, "Elevation": 1079.0, "Basin_Area": 215.0 }, "geometry": { "type": "Point", "coordinates": [ 30.1278, 37.0989 ] } },
{ "type": "Feature", "properties": { "Station": "D09A125", "Name": "Kurupinar D. Küçükköy", "lat": 37.1131, "lon": 30.3036, "Elevation": 890.0, "Basin_Area": 11.0 }, "geometry": { "type": "Point", "coordinates": [ 30.3036, 37.1131 ] } },
{ "type": "Feature", "properties": { "Station": "D09A126", "Name": "Asar D. Küçükköy", "lat": 37.1367, "lon": 30.2953, "Elevation": 910.0, "Basin_Area": 5.0 }, "geometry": { "type": "Point", "coordinates": [ 30.2953, 37.1367 ] } },
{ "type": "Feature", "properties": { "Station": "D09A114", "Name": "Kizillar D. Yavrudogan", "lat": 36.8872, "lon": 31.3125, "Elevation": 75.0, "Basin_Area": 22.0 }, "geometry": { "type": "Point", "coordinates": [ 31.3125, 36.8872 ] } },
{ "type": "Feature", "properties": { "Station": "D09A116", "Name": "NARAS D. ŞİŞELER", "lat": 36.8736, "lon": 31.4042, "Elevation": 30.0, "Basin_Area": 193.0 }, "geometry": { "type": "Point", "coordinates": [ 31.4042, 36.8736 ] } },
{ "type": "Feature", "properties": { "Station": "D09A104", "Name": "Beybasan D. Ahırtaş", "lat": 37.2069, "lon": 30.6811, "Elevation": 12.0, "Basin_Area": 12.0 }, "geometry": { "type": "Point", "coordinates": [ 30.6811, 37.2069 ] } },
{ "type": "Feature", "properties": { "Station": "D09A111", "Name": "Doyran D. Doyran", "lat": 36.8897, "lon": 30.5119, "Elevation": 145.0, "Basin_Area": 105.0 }, "geometry": { "type": "Point", "coordinates": [ 30.5119, 36.8897 ] } },
{ "type": "Feature", "properties": { "Station": "D09A120", "Name": "Giren D. Ormana", "lat": 37.5733, "lon": 31.4717, "Elevation": 995.0, "Basin_Area": 6.0 }, "geometry": { "type": "Point", "coordinates": [ 31.4717, 37.5733 ] } },
{ "type": "Feature", "properties": { "Station": "D09A121", "Name": "Boyali Ç. Doyran", "lat": 36.8892, "lon": 30.3556, "Elevation": 1327.0, "Basin_Area": 20.0 }, "geometry": { "type": "Point", "coordinates": [ 30.3556, 36.8892 ] } },
{ "type": "Feature", "properties": { "Station": "D09A117", "Name": "ALİCI D. GÜNDOGMUS", "lat": 36.7092, "lon": 31.7892, "Elevation": 392.0, "Basin_Area": 10.0 }, "geometry": { "type": "Point", "coordinates": [ 31.7892, 36.7092 ] } },
{ "type": "Feature", "properties": { "Station": "D09A118", "Name": "Bogalak D. Tasagil", "lat": 36.9311, "lon": 31.2633, "Elevation": 75.0, "Basin_Area": 5.0 }, "geometry": { "type": "Point", "coordinates": [ 31.2633, 36.9311 ] } },
{ "type": "Feature", "properties": { "Station": "D10A013", "Name": "BOZÇAY YAZİKÖY", "lat": 37.6375, "lon": 30.0819, "Elevation": 865.0, "Basin_Area": 1571.0 }, "geometry": { "type": "Point", "coordinates": [ 30.0819, 37.6375 ] } },
{ "type": "Feature", "properties": { "Station": "D10A023", "Name": "KARAMANLI BRJ. GİRİŞ", "lat": 37.4336, "lon": 29.82, "Elevation": 1190.0, "Basin_Area": 114.0 }, "geometry": { "type": "Point", "coordinates": [ 29.82, 37.4336 ] } },
{ "type": "Feature", "properties": { "Station": "D09G113", "Name": "EGRİDİR G. GÖL GÖZLEM", "lat": 37.9717, "lon": 30.9606, "Elevation": 920.0, "Basin_Area": 3321.0 }, "geometry": { "type": "Point", "coordinates": [ 30.9606, 37.9717 ] } },
{ "type": "Feature", "properties": { "Station": "D10A013", "Name": "BOZÇAY YAZĠKÖY", "lat": 37.6289, "lon": 30.0733, "Elevation": 865.0, "Basin_Area": 1571.0 }, "geometry": { "type": "Point", "coordinates": [ 30.0733, 37.6289 ] } },
{ "type": "Feature", "properties": { "Station": "D10A032", "Name": "DEĞĠRMEN DERESĠ BAġMAKCI-YAKA", "lat": 37.8514, "lon": 30.0469, "Elevation": 904.0, "Basin_Area": 60.0 }, "geometry": { "type": "Point", "coordinates": [ 30.0469, 37.8514 ] } },
{ "type": "Feature", "properties": { "Station": "D10A032", "Name": "DEĞİRMEN DERESİ BAŞMAKCI-YAKA", "lat": 37.8575, "lon": 30.0442, "Elevation": 904.0, "Basin_Area": 60.0 }, "geometry": { "type": "Point", "coordinates": [ 30.0442, 37.8575 ] } },
{ "type": "Feature", "properties": { "Station": "D10A027", "Name": "BÜĞDÜZ D. SULUDERE", "lat": 37.6506, "lon": 30.1783, "Elevation": 920.0, "Basin_Area": 214.0 }, "geometry": { "type": "Point", "coordinates": [ 30.1783, 37.6506 ] } },
{ "type": "Feature", "properties": { "Station": "D10A027", "Name": "BÜĞDÜZ D. SULUDERE", "lat": 37.6517, "lon": 30.1792, "Elevation": 900.0, "Basin_Area": 214.0 }, "geometry": { "type": "Point", "coordinates": [ 30.1792, 37.6517 ] } },
{ "type": "Feature", "properties": { "Station": "D09A134", "Name": "KABIZ D. ÇAYKÖY", "lat": 37.8253, "lon": 30.9486, "Elevation": 1023.0, "Basin_Area": 69.0 }, "geometry": { "type": "Point", "coordinates": [ 30.9486, 37.8253 ] } },
{ "type": "Feature", "properties": { "Station": "D09A135", "Name": "ÇİNGEN DERESİ MANAVGAT", "lat": 36.7775, "lon": 31.6447, "Elevation": 61.0, "Basin_Area": 2.0 }, "geometry": { "type": "Point", "coordinates": [ 31.6447, 36.7775 ] } },
{ "type": "Feature", "properties": { "Station": "D09A132", "Name": "SAÇI DERESĠ ÇALTEPE", "lat": 37.3125, "lon": 31.2039, "Elevation": 441.0, "Basin_Area": 9.0 }, "geometry": { "type": "Point", "coordinates": [ 31.2039, 37.3125 ] } },
{ "type": "Feature", "properties": { "Station": "D09A133", "Name": "KARDERE  YEŞİLBAĞ", "lat": 37.4117, "lon": 31.2708, "Elevation": 718.0, "Basin_Area": 7.0 }, "geometry": { "type": "Point", "coordinates": [ 31.2708, 37.4117 ] } },
{ "type": "Feature", "properties": { "Station": "D09G059", "Name": "HOYRAN G. GÖL GÖZLEM", "lat": 38.1333, "lon": 30.8, "Elevation": 950.0, "Basin_Area": 3321.0 }, "geometry": { "type": "Point", "coordinates": [ 30.8, 38.1333 ] } },
{ "type": "Feature", "properties": { "Station": "D09G096", "Name": "KARACAÖREN BRJ. GÖL GÖZLEM", "lat": 37.3706, "lon": 30.8317, "Elevation": 272.0, "Basin_Area": 3820.0 }, "geometry": { "type": "Point", "coordinates": [ 30.8317, 37.3706 ] } },
{ "type": "Feature", "properties": { "Station": "D09G009", "Name": "EGRİDIR G. GÖL GÖZLEM", "lat": 37.8833, "lon": 30.8333, "Elevation": 62.0, "Basin_Area": 3321.0 }, "geometry": { "type": "Point", "coordinates": [ 30.8333, 37.8833 ] } },
{ "type": "Feature", "properties": { "Station": "D09G017", "Name": "KOVADA G. GÖL GÖZLEM", "lat": 37.6167, "lon": 30.8667, "Elevation": 94.0, "Basin_Area": 3728.0 }, "geometry": { "type": "Point", "coordinates": [ 30.8667, 37.6167 ] } },
{ "type": "Feature", "properties": { "Station": "D09A075", "Name": "GELENDOST D. AVŞAR KÖP.", "lat": 38.1333, "lon": 30.9833, "Elevation": 940.0, "Basin_Area": 988.0 }, "geometry": { "type": "Point", "coordinates": [ 30.9833, 38.1333 ] } },
{ "type": "Feature", "properties": { "Station": "D09A084", "Name": "Oba Ç. Kadipinari", "lat": 36.5844, "lon": 32.0789, "Elevation": 90.0, "Basin_Area": 46.0 }, "geometry": { "type": "Point", "coordinates": [ 32.0789, 36.5844 ] } },
{ "type": "Feature", "properties": { "Station": "D09A075", "Name": "GELENDOST D. AVġAR KÖP.", "lat": 38.13, "lon": 30.9906, "Elevation": 940.0, "Basin_Area": 989.0 }, "geometry": { "type": "Point", "coordinates": [ 30.9906, 38.13 ] } },
{ "type": "Feature", "properties": { "Station": "D09A075", "Name": "GELENDOST D. AVŞAR KÖP.", "lat": 38.1314, "lon": 30.9906, "Elevation": 940.0, "Basin_Area": 988.0 }, "geometry": { "type": "Point", "coordinates": [ 30.9906, 38.1314 ] } },
{ "type": "Feature", "properties": { "Station": "D09A086", "Name": "AKSU D. BELENCE", "lat": 37.6231, "lon": 31.1236, "Elevation": 1000.0, "Basin_Area": 349.0 }, "geometry": { "type": "Point", "coordinates": [ 31.1236, 37.6231 ] } },
{ "type": "Feature", "properties": { "Station": "D09A086", "Name": "AKSU D. BELENCE", "lat": 37.6236, "lon": 31.1325, "Elevation": 1000.0, "Basin_Area": 349.0 }, "geometry": { "type": "Point", "coordinates": [ 31.1325, 37.6236 ] } },
{ "type": "Feature", "properties": { "Station": "D09A084", "Name": "OBA Ç. KADİPINARI", "lat": 36.585, "lon": 32.0778, "Elevation": 90.0, "Basin_Area": 46.0 }, "geometry": { "type": "Point", "coordinates": [ 32.0778, 36.585 ] } },
{ "type": "Feature", "properties": { "Station": "D09A086", "Name": "AKSU D. BELENCE", "lat": 37.6167, "lon": 31.1167, "Elevation": 1000.0, "Basin_Area": 349.0 }, "geometry": { "type": "Point", "coordinates": [ 31.1167, 37.6167 ] } },
{ "type": "Feature", "properties": { "Station": "D09A065", "Name": "SÜCÜLLÜ BRJ. GİRİŞ", "lat": 38.3939, "lon": 31.1269, "Elevation": 1198.0, "Basin_Area": 103.0 }, "geometry": { "type": "Point", "coordinates": [ 31.1269, 38.3939 ] } },
{ "type": "Feature", "properties": { "Station": "D09A065", "Name": "SÜCÜLLÜ BRJ. GĠRĠġ", "lat": 38.3942, "lon": 31.1269, "Elevation": 1198.0, "Basin_Area": 103.0 }, "geometry": { "type": "Point", "coordinates": [ 31.1269, 38.3942 ] } },
{ "type": "Feature", "properties": { "Station": "D09A060", "Name": "ÇAYDERE EGĠRDIR GÖL GĠRĠġ", "lat": 37.8383, "lon": 30.8981, "Elevation": 935.0, "Basin_Area": 111.0 }, "geometry": { "type": "Point", "coordinates": [ 30.8981, 37.8383 ] } },
{ "type": "Feature", "properties": { "Station": "D09A060", "Name": "ÇAYDERE EGİRDIR GÖL GİRİŞ", "lat": 37.8394, "lon": 30.8986, "Elevation": 935.0, "Basin_Area": 111.0 }, "geometry": { "type": "Point", "coordinates": [ 30.8986, 37.8394 ] } },
{ "type": "Feature", "properties": { "Station": "D09A068", "Name": "KARGI Ç. TÜRKLER", "lat": 36.6139, "lon": 31.8, "Elevation": 16.0, "Basin_Area": 336.0 }, "geometry": { "type": "Point", "coordinates": [ 31.8, 36.6139 ] } },
{ "type": "Feature", "properties": { "Station": "D09A068", "Name": "Kargi Ç. Türkler", "lat": 36.6244, "lon": 31.8142, "Elevation": 16.0, "Basin_Area": 336.0 }, "geometry": { "type": "Point", "coordinates": [ 31.8142, 36.6244 ] } },
{ "type": "Feature", "properties": { "Station": "D09A065", "Name": "SÜCÜLLÜ BRJ. GİRİŞ", "lat": 38.4167, "lon": 31.1333, "Elevation": 1198.0, "Basin_Area": 103.0 }, "geometry": { "type": "Point", "coordinates": [ 31.1333, 38.4167 ] } },
{ "type": "Feature", "properties": { "Station": "D09A067", "Name": "Karpuz Ç. Uzunlar", "lat": 36.7439, "lon": 31.6228, "Elevation": 100.0, "Basin_Area": 303.0 }, "geometry": { "type": "Point", "coordinates": [ 31.6228, 36.7439 ] } },
{ "type": "Feature", "properties": { "Station": "D09A098", "Name": "Aksu Ç. Kargi Reg.", "lat": 37.2708, "lon": 30.805, "Elevation": 73.0, "Basin_Area": 5546.0 }, "geometry": { "type": "Point", "coordinates": [ 30.805, 37.2708 ] } },
{ "type": "Feature", "properties": { "Station": "D09A100", "Name": "BAŞAK DERESİ YANIKKÖY", "lat": 37.65, "lon": 31.15, "Elevation": 1085.0, "Basin_Area": 223.0 }, "geometry": { "type": "Point", "coordinates": [ 31.15, 37.65 ] } },
{ "type": "Feature", "properties": { "Station": "D09A095", "Name": "ÇANDIR ÇAYI YEMİŞLİ PINAR MEVKİİ", "lat": 36.825, "lon": 31.4672, "Elevation": 160.0, "Basin_Area": 164.0 }, "geometry": { "type": "Point", "coordinates": [ 31.4672, 36.825 ] } },
{ "type": "Feature", "properties": { "Station": "D09A095", "Name": "Çandir Ç. Yemisli Pinar", "lat": 36.8281, "lon": 31.4725, "Elevation": 160.0, "Basin_Area": 164.0 }, "geometry": { "type": "Point", "coordinates": [ 31.4725, 36.8281 ] } },
{ "type": "Feature", "properties": { "Station": "D09A101", "Name": "Köprüçay Karakaya", "lat": 36.9803, "lon": 31.1992, "Elevation": 20.0, "Basin_Area": 2330.0 }, "geometry": { "type": "Point", "coordinates": [ 31.1992, 36.9803 ] } },
{ "type": "Feature", "properties": { "Station": "D09A104", "Name": "BEYBASAN D. AHIRTAŞ", "lat": 37.2028, "lon": 30.7342, "Elevation": 403.0, "Basin_Area": 12.0 }, "geometry": { "type": "Point", "coordinates": [ 30.7342, 37.2028 ] } },
{ "type": "Feature", "properties": { "Station": "D09A100", "Name": "BAġAK D. YANIKKÖY", "lat": 37.6592, "lon": 31.1556, "Elevation": 1085.0, "Basin_Area": 223.0 }, "geometry": { "type": "Point", "coordinates": [ 31.1556, 37.6592 ] } },
{ "type": "Feature", "properties": { "Station": "D09A101", "Name": "KÖPRÜÇAY KARAKAYA", "lat": 36.98, "lon": 31.1997, "Elevation": 20.0, "Basin_Area": 2330.0 }, "geometry": { "type": "Point", "coordinates": [ 31.1997, 36.98 ] } },
{ "type": "Feature", "properties": { "Station": "D09A089", "Name": "DEGĠRMENDERE SELĠMLER", "lat": 37.4628, "lon": 30.9122, "Elevation": 320.0, "Basin_Area": 313.0 }, "geometry": { "type": "Point", "coordinates": [ 30.9122, 37.4628 ] } },
{ "type": "Feature", "properties": { "Station": "D09A088", "Name": "DEGĠRMENDERE D. SÜTÇÜLER", "lat": 37.4686, "lon": 30.9842, "Elevation": 750.0, "Basin_Area": 131.0 }, "geometry": { "type": "Point", "coordinates": [ 30.9842, 37.4686 ] } },
{ "type": "Feature", "properties": { "Station": "D09A088", "Name": "DEGİRMENDERE D. SÜTÇÜLER", "lat": 37.4772, "lon": 30.9778, "Elevation": 750.0, "Basin_Area": 130.0 }, "geometry": { "type": "Point", "coordinates": [ 30.9778, 37.4772 ] } },
{ "type": "Feature", "properties": { "Station": "D09A091", "Name": "Kirkgözler Is.K. Çiglik Ist.", "lat": 37.0725, "lon": 30.5806, "Elevation": 300.0, "Basin_Area": 2000.0 }, "geometry": { "type": "Point", "coordinates": [ 30.5806, 37.0725 ] } },
{ "type": "Feature", "properties": { "Station": "D09A095", "Name": "ÇANDIR ÇAYI YEMİŞLİ PINAR MEVKİİ", "lat": 36.825, "lon": 30.4672, "Elevation": 160.0, "Basin_Area": 164.0 }, "geometry": { "type": "Point", "coordinates": [ 30.4672, 36.825 ] } },
{ "type": "Feature", "properties": { "Station": "D09A089", "Name": "DEGİRMENDERE SELİMLER", "lat": 37.4639, "lon": 30.9083, "Elevation": 320.0, "Basin_Area": 313.0 }, "geometry": { "type": "Point", "coordinates": [ 30.9083, 37.4639 ] } },
{ "type": "Feature", "properties": { "Station": "D09A091", "Name": "TOPRAKSU MEVKİİ KIRKGÖZLER KANALI", "lat": 37.0719, "lon": 30.5806, "Elevation": 300.0, "Basin_Area": 2000.0 }, "geometry": { "type": "Point", "coordinates": [ 30.5806, 37.0719 ] } },
{ "type": "Feature", "properties": { "Station": "D08A156", "Name": "KOCAÇAY ÖREN REGÜLATÖR ÇIKIŞI", "lat": 36.7475, "lon": 29.3872, "Elevation": 196.0, "Basin_Area": 802.0 }, "geometry": { "type": "Point", "coordinates": [ 29.3872, 36.7475 ] } },
{ "type": "Feature", "properties": { "Station": "D08A157", "Name": "TİRE D. GÜMÜŞYAKA", "lat": 36.87, "lon": 30.0089, "Elevation": 1210.0, "Basin_Area": 29.0 }, "geometry": { "type": "Point", "coordinates": [ 30.0089, 36.87 ] } },
{ "type": "Feature", "properties": { "Station": "D08A154", "Name": "KAYA DERESİ KERDİM", "lat": 37.2011, "lon": 27.9103, "Elevation": 347.0, "Basin_Area": 75.86 }, "geometry": { "type": "Point", "coordinates": [ 27.9103, 37.2011 ] } },
{ "type": "Feature", "properties": { "Station": "D08A155", "Name": "KOCA DERE KEMİKLER", "lat": 37.1969, "lon": 27.6711, "Elevation": 38.0, "Basin_Area": 11.1 }, "geometry": { "type": "Point", "coordinates": [ 27.6711, 37.1969 ] } },
{ "type": "Feature", "properties": { "Station": "D09A002", "Name": "YENİCE S. ZİNDAN BOĞAZI", "lat": 37.7117, "lon": 31.0908, "Elevation": 1250.0, "Basin_Area": 61.0 }, "geometry": { "type": "Point", "coordinates": [ 31.0908, 37.7117 ] } },
{ "type": "Feature", "properties": { "Station": "D09A002", "Name": "YENİCE S. ZİNDAN BOĞAZI", "lat": 37.8103, "lon": 31.0903, "Elevation": 1250.0, "Basin_Area": 61.0 }, "geometry": { "type": "Point", "coordinates": [ 31.0903, 37.8103 ] } },
{ "type": "Feature", "properties": { "Station": "D08A160", "Name": "BOĞA DERESİ BALCILAR", "lat": 37.0733, "lon": 28.6008, "Elevation": 137.0, "Basin_Area": 45.0 }, "geometry": { "type": "Point", "coordinates": [ 28.6008, 37.0733 ] } },
{ "type": "Feature", "properties": { "Station": "D08G066", "Name": "GÖLHİSAR G. GÖL GÖZLEM", "lat": 38.0744, "lon": 30.2803, "Elevation": 945.0, "Basin_Area": 4954.0 }, "geometry": { "type": "Point", "coordinates": [ 30.2803, 38.0744 ] } },
{ "type": "Feature", "properties": { "Station": "D08A146", "Name": "GÖKÇAY KARAÇAM", "lat": 37.0356, "lon": 29.0472, "Elevation": 375.0, "Basin_Area": 163.0 }, "geometry": { "type": "Point", "coordinates": [ 29.0472, 37.0356 ] } },
{ "type": "Feature", "properties": { "Station": "D08A147", "Name": "AKSU DERESĠ BELKAYA", "lat": 37.3067, "lon": 29.6292, "Elevation": 1155.0, "Basin_Area": 82.0 }, "geometry": { "type": "Point", "coordinates": [ 29.6292, 37.3067 ] } },
{ "type": "Feature", "properties": { "Station": "D08A144", "Name": "AKDERE ÖRENKÖY (ACİPAYAM)", "lat": 37.3272, "lon": 29.3028, "Elevation": 900.0, "Basin_Area": 69.0 }, "geometry": { "type": "Point", "coordinates": [ 29.3028, 37.3272 ] } },
{ "type": "Feature", "properties": { "Station": "D08A145", "Name": "KADINAZMAĞI GÖKOVA", "lat": 37.05, "lon": 28.3275, "Elevation": 3.0, "Basin_Area": 6.0 }, "geometry": { "type": "Point", "coordinates": [ 28.3275, 37.05 ] } },
{ "type": "Feature", "properties": { "Station": "D08A152", "Name": "SARIÇAY DAMLIBOĞAZ KÖP.", "lat": 37.3064, "lon": 27.7122, "Elevation": 11.0, "Basin_Area": 684.0 }, "geometry": { "type": "Point", "coordinates": [ 27.7122, 37.3064 ] } },
{ "type": "Feature", "properties": { "Station": "D08A153", "Name": "KURU ÇAY DERESİ SIRÇALIK", "lat": 37.5219, "lon": 29.4961, "Elevation": 1030.0, "Basin_Area": 32.92 }, "geometry": { "type": "Point", "coordinates": [ 29.4961, 37.5219 ] } },
{ "type": "Feature", "properties": { "Station": "D08A148", "Name": "KIZILDERE KESERALĠ-HES", "lat": 36.8133, "lon": 29.0464, "Elevation": 275.0, "Basin_Area": 58.0 }, "geometry": { "type": "Point", "coordinates": [ 29.0464, 36.8133 ] } },
{ "type": "Feature", "properties": { "Station": "D08A151", "Name": "DALAMAN Ç. ATATÜRK KÖP.", "lat": 36.8342, "lon": 28.7942, "Elevation": 37.0, "Basin_Area": 5152.0 }, "geometry": { "type": "Point", "coordinates": [ 28.7942, 36.8342 ] } },
{ "type": "Feature", "properties": { "Station": "D09A042", "Name": "AĞLASUN Ç. AĞLASUN", "lat": 37.6425, "lon": 30.5286, "Elevation": 1100.0, "Basin_Area": 48.0 }, "geometry": { "type": "Point", "coordinates": [ 30.5286, 37.6425 ] } },
{ "type": "Feature", "properties": { "Station": "D09A042", "Name": "AĞLASUN Ç. AĞLASUN", "lat": 37.6439, "lon": 30.5297, "Elevation": 1100.0, "Basin_Area": 48.0 }, "geometry": { "type": "Point", "coordinates": [ 30.5297, 37.6439 ] } },
{ "type": "Feature", "properties": { "Station": "D09A039", "Name": "ONAÇ  BRJ. GĠRĠġ", "lat": 37.515, "lon": 30.5133, "Elevation": 829.0, "Basin_Area": 217.0 }, "geometry": { "type": "Point", "coordinates": [ 30.5133, 37.515 ] } },
{ "type": "Feature", "properties": { "Station": "D09A039", "Name": "ONAÇ  BRJ. GİRİŞ", "lat": 37.5167, "lon": 30.3667, "Elevation": 835.0, "Basin_Area": 217.0 }, "geometry": { "type": "Point", "coordinates": [ 30.3667, 37.5167 ] } },
{ "type": "Feature", "properties": { "Station": "D09A057", "Name": "HOYRAN DERESİ GÖKÇEALİ", "lat": 38.2833, "lon": 30.9333, "Elevation": 950.0, "Basin_Area": 185.0 }, "geometry": { "type": "Point", "coordinates": [ 30.9333, 38.2833 ] } },
{ "type": "Feature", "properties": { "Station": "D09A057", "Name": "HOYRAN D. GÖKÇEALĠ", "lat": 38.2994, "lon": 30.9547, "Elevation": 950.0, "Basin_Area": 185.0 }, "geometry": { "type": "Point", "coordinates": [ 30.9547, 38.2994 ] } },
{ "type": "Feature", "properties": { "Station": "D09A056", "Name": "DÜDEN Ç. REGÜLATÖR ÇIKIS", "lat": 36.9375, "lon": 30.7553, "Elevation": 96.0, "Basin_Area": 1781.5 }, "geometry": { "type": "Point", "coordinates": [ 30.7553, 36.9375 ] } },
{ "type": "Feature", "properties": { "Station": "D09A056", "Name": "Düden Ç. Reg.Çikis", "lat": 36.9386, "lon": 30.7558, "Elevation": 96.0, "Basin_Area": 1781.0 }, "geometry": { "type": "Point", "coordinates": [ 30.7558, 36.9386 ] } },
{ "type": "Feature", "properties": { "Station": "D09A011", "Name": "Korkuteli Ç. Salamur Bog.", "lat": 37.1333, "lon": 30.05, "Elevation": 1190.0, "Basin_Area": 130.0 }, "geometry": { "type": "Point", "coordinates": [ 30.05, 37.1333 ] } },
{ "type": "Feature", "properties": { "Station": "D09A013", "Name": "Dim Ç. Reg.Çikis", "lat": 36.5494, "lon": 32.1217, "Elevation": 33.0, "Basin_Area": 195.0 }, "geometry": { "type": "Point", "coordinates": [ 32.1217, 36.5494 ] } },
{ "type": "Feature", "properties": { "Station": "D09A002", "Name": "YENĠCE S. ZĠNDAN BOĞAZI", "lat": 37.8117, "lon": 31.0911, "Elevation": 1250.0, "Basin_Area": 61.0 }, "geometry": { "type": "Point", "coordinates": [ 31.0911, 37.8117 ] } },
{ "type": "Feature", "properties": { "Station": "D09A006", "Name": "Dim Ç. Sag Sahil Sul.Kan.", "lat": 36.5494, "lon": 32.1217, "Elevation": 38.0, "Basin_Area": 195.0 }, "geometry": { "type": "Point", "coordinates": [ 32.1217, 36.5494 ] } },
{ "type": "Feature", "properties": { "Station": "D09A031", "Name": "KARAMAN Ç. KAPUZ BOG.", "lat": 36.9347, "lon": 30.5736, "Elevation": 52.0, "Basin_Area": 404.0 }, "geometry": { "type": "Point", "coordinates": [ 30.5736, 36.9347 ] } },
{ "type": "Feature", "properties": { "Station": "D09A034", "Name": "Küçükaksu . Gebiz", "lat": 37.1317, "lon": 30.9422, "Elevation": 62.0, "Basin_Area": 238.0 }, "geometry": { "type": "Point", "coordinates": [ 30.9422, 37.1317 ] } },
{ "type": "Feature", "properties": { "Station": "D09A016", "Name": "KOVADA G. ÇĠKIS", "lat": 37.6486, "lon": 30.8689, "Elevation": 906.0, "Basin_Area": 3728.0 }, "geometry": { "type": "Point", "coordinates": [ 30.8689, 37.6486 ] } },
{ "type": "Feature", "properties": { "Station": "D09A016", "Name": "KOVADA G. ÇİKIS", "lat": 37.65, "lon": 30.8667, "Elevation": 903.0, "Basin_Area": 3728.0 }, "geometry": { "type": "Point", "coordinates": [ 30.8667, 37.65 ] } },
{ "type": "Feature", "properties": { "Station": "D08A100", "Name": "KARABALÇIK D. ÇOBANİSA", "lat": 36.9558, "lon": 29.6733, "Elevation": 1280.0, "Basin_Area": 21.0 }, "geometry": { "type": "Point", "coordinates": [ 29.6733, 36.9558 ] } },
{ "type": "Feature", "properties": { "Station": "D08A101", "Name": "KOCAÇAY EPÇE", "lat": 37.3889, "lon": 27.7611, "Elevation": 25.0, "Basin_Area": 70.0 }, "geometry": { "type": "Point", "coordinates": [ 27.7611, 37.3889 ] } },
{ "type": "Feature", "properties": { "Station": "D08A099", "Name": "KANDAK Ç. SELİMİYE", "lat": 37.4206, "lon": 27.6533, "Elevation": 59.0, "Basin_Area": 28.0 }, "geometry": { "type": "Point", "coordinates": [ 27.6533, 37.4206 ] } },
{ "type": "Feature", "properties": { "Station": "D08A100", "Name": "KARABALÇIK D. ÇOBANİSA", "lat": 36.6167, "lon": 29.6667, "Elevation": 1280.0, "Basin_Area": 21.0 }, "geometry": { "type": "Point", "coordinates": [ 29.6667, 36.6167 ] } },
{ "type": "Feature", "properties": { "Station": "D08A104", "Name": "DEĞİRMENDERE AKALAN", "lat": 37.3708, "lon": 29.3197, "Elevation": 1100.0, "Basin_Area": 34.0 }, "geometry": { "type": "Point", "coordinates": [ 29.3197, 37.3708 ] } },
{ "type": "Feature", "properties": { "Station": "D08A104", "Name": "DEĞİRMENDERE AKALAN", "lat": 37.3833, "lon": 29.35, "Elevation": 1100.0, "Basin_Area": 34.0 }, "geometry": { "type": "Point", "coordinates": [ 29.35, 37.3833 ] } },
{ "type": "Feature", "properties": { "Station": "D08A103", "Name": "DALAMAN Ç. ÇAMKÖY", "lat": 37.2447, "lon": 29.5303, "Elevation": 906.0, "Basin_Area": 1752.0 }, "geometry": { "type": "Point", "coordinates": [ 29.5303, 37.2447 ] } },
{ "type": "Feature", "properties": { "Station": "D08A103", "Name": "DALAMAN Ç. ÇAMKÖY", "lat": 37.25, "lon": 29.5167, "Elevation": 906.0, "Basin_Area": 1752.0 }, "geometry": { "type": "Point", "coordinates": [ 29.5167, 37.25 ] } },
{ "type": "Feature", "properties": { "Station": "D08A092", "Name": "BAYIR Ç. GÖKÇEBURUN", "lat": 37.1028, "lon": 29.7125, "Elevation": 1045.0, "Basin_Area": 626.0 }, "geometry": { "type": "Point", "coordinates": [ 29.7125, 37.1028 ] } },
{ "type": "Feature", "properties": { "Station": "D08A094", "Name": "DEGİRMENDERE DEREKÖY", "lat": 37.09, "lon": 27.9394, "Elevation": 135.0, "Basin_Area": 51.0 }, "geometry": { "type": "Point", "coordinates": [ 27.9394, 37.09 ] } },
{ "type": "Feature", "properties": { "Station": "D08A091", "Name": "EŞEN Ç. ÖRENKÖY REG.", "lat": 36.75, "lon": 29.3833, "Elevation": 190.0, "Basin_Area": 802.0 }, "geometry": { "type": "Point", "coordinates": [ 29.3833, 36.75 ] } },
{ "type": "Feature", "properties": { "Station": "D08A091", "Name": "ESEN Ç. ÖRENKÖY REG.", "lat": 36.7625, "lon": 29.3964, "Elevation": 207.0, "Basin_Area": 802.0 }, "geometry": { "type": "Point", "coordinates": [ 29.3964, 36.7625 ] } },
{ "type": "Feature", "properties": { "Station": "D08A097", "Name": "DERİNCE D. DERİNCE", "lat": 37.4194, "lon": 27.6408, "Elevation": 70.0, "Basin_Area": 41.0 }, "geometry": { "type": "Point", "coordinates": [ 27.6408, 37.4194 ] } },
{ "type": "Feature", "properties": { "Station": "D08A098", "Name": "EŞENCE D. KIZILCAYIKIK", "lat": 37.3667, "lon": 27.7833, "Elevation": 25.0, "Basin_Area": 30.0 }, "geometry": { "type": "Point", "coordinates": [ 27.7833, 37.3667 ] } },
{ "type": "Feature", "properties": { "Station": "D08A095", "Name": "MÜMÜR D. YİLMAZLI", "lat": 36.8, "lon": 29.8075, "Elevation": 1070.0, "Basin_Area": 196.0 }, "geometry": { "type": "Point", "coordinates": [ 29.8075, 36.8 ] } },
{ "type": "Feature", "properties": { "Station": "D08A096", "Name": "DEĞİRMEN D. MİLAS", "lat": 37.3208, "lon": 27.8114, "Elevation": 50.0, "Basin_Area": 49.0 }, "geometry": { "type": "Point", "coordinates": [ 27.8114, 37.3208 ] } },
{ "type": "Feature", "properties": { "Station": "D08A128", "Name": "OLUK D. TOPTAS", "lat": 36.4211, "lon": 30.3547, "Elevation": 188.0, "Basin_Area": 23.0 }, "geometry": { "type": "Point", "coordinates": [ 30.3547, 36.4211 ] } },
{ "type": "Feature", "properties": { "Station": "D08A134", "Name": "ÇAYDERE BESİKCI", "lat": 36.3556, "lon": 30.3572, "Elevation": 110.0, "Basin_Area": 6.0 }, "geometry": { "type": "Point", "coordinates": [ 30.3572, 36.3556 ] } },
{ "type": "Feature", "properties": { "Station": "D08A118", "Name": "KAZANDERE HİSARÖNÜ", "lat": 36.8281, "lon": 28.1675, "Elevation": 20.0, "Basin_Area": 46.0 }, "geometry": { "type": "Point", "coordinates": [ 28.1675, 36.8281 ] } },
{ "type": "Feature", "properties": { "Station": "D08A121", "Name": "BATIŞ D. KARAOVA", "lat": 37.1139, "lon": 27.6836, "Elevation": 66.0, "Basin_Area": 70.0 }, "geometry": { "type": "Point", "coordinates": [ 27.6836, 37.1139 ] } },
{ "type": "Feature", "properties": { "Station": "D08A142", "Name": "GERİN D. BOZALAN", "lat": 37.0297, "lon": 27.8344, "Elevation": 34.0, "Basin_Area": 26.0 }, "geometry": { "type": "Point", "coordinates": [ 27.8344, 37.0297 ] } },
{ "type": "Feature", "properties": { "Station": "D08A143", "Name": "KOCAÇAY ÖREN MİLAS", "lat": 37.0692, "lon": 27.9961, "Elevation": 83.0, "Basin_Area": 247.0 }, "geometry": { "type": "Point", "coordinates": [ 27.9961, 37.0692 ] } },
{ "type": "Feature", "properties": { "Station": "D08A135", "Name": "KARABAYİR D. KARABAYİR", "lat": 36.9183, "lon": 30.0619, "Elevation": 1292.0, "Basin_Area": 11.0 }, "geometry": { "type": "Point", "coordinates": [ 30.0619, 36.9183 ] } },
{ "type": "Feature", "properties": { "Station": "D08A140", "Name": "KARGICAK D. KÖYCEGİZ", "lat": 37.0092, "lon": 28.7133, "Elevation": 290.0, "Basin_Area": 38.0 }, "geometry": { "type": "Point", "coordinates": [ 28.7133, 37.0092 ] } },
{ "type": "Feature", "properties": { "Station": "D08A107", "Name": "BÜYÜKDERE KARAHASANTAŞI KÖP.", "lat": 36.9472, "lon": 29.6236, "Elevation": 1385.0, "Basin_Area": 41.0 }, "geometry": { "type": "Point", "coordinates": [ 29.6236, 36.9472 ] } },
{ "type": "Feature", "properties": { "Station": "D08A108", "Name": "SEKİ Ç. GACAK BOGAZI", "lat": 36.8286, "lon": 29.5094, "Elevation": 1050.0, "Basin_Area": 635.0 }, "geometry": { "type": "Point", "coordinates": [ 29.5094, 36.8286 ] } },
{ "type": "Feature", "properties": { "Station": "D08A105", "Name": "YAVANOLUK D. YK.DODURGA", "lat": 37.4078, "lon": 29.6281, "Elevation": 1565.0, "Basin_Area": 40.0 }, "geometry": { "type": "Point", "coordinates": [ 29.6281, 37.4078 ] } },
{ "type": "Feature", "properties": { "Station": "D08A106", "Name": "ÇATALOLUK D. KARAÇULHA", "lat": 36.9464, "lon": 29.6442, "Elevation": 1340.0, "Basin_Area": 8.0 }, "geometry": { "type": "Point", "coordinates": [ 29.6442, 36.9464 ] } },
{ "type": "Feature", "properties": { "Station": "D08A113", "Name": "YARDİBI D. KARACAHİSAR", "lat": 37.1528, "lon": 27.8294, "Elevation": 120.0, "Basin_Area": 36.8 }, "geometry": { "type": "Point", "coordinates": [ 27.8294, 37.1528 ] } },
{ "type": "Feature", "properties": { "Station": "D08A115", "Name": "KOCAALAN D. MARMARİS", "lat": 36.9531, "lon": 28.2875, "Elevation": 25.0, "Basin_Area": 89.0 }, "geometry": { "type": "Point", "coordinates": [ 28.2875, 36.9531 ] } },
{ "type": "Feature", "properties": { "Station": "D08A109", "Name": "GEYİK SUYU NİF KÖYÜ", "lat": 36.8494, "lon": 29.1667, "Elevation": 1035.0, "Basin_Area": 8.0 }, "geometry": { "type": "Point", "coordinates": [ 29.1667, 36.8494 ] } },
{ "type": "Feature", "properties": { "Station": "D08A112", "Name": "KANLİGÖL D. KARACAHİSAR", "lat": 37.1581, "lon": 27.8128, "Elevation": 115.0, "Basin_Area": 34.0 }, "geometry": { "type": "Point", "coordinates": [ 27.8128, 37.1581 ] } },